City,Lat,Lng,Max Temp,Humidity,Cloudiness,Wind Speed,Country,Date
Cidreira,-30.1811,-50.2056,73.04,68,0,9.42,BR,1635364075
Vila Franca do Campo,37.7167,-25.4333,66.61,90,100,9.06,PT,1635364075
Beringovskiy,63.05,179.3167,6.96,86,92,16.42,RU,1635364075
Qaanaaq,77.484,-69.3632,20.75,94,100,11.21,GL,1635363977
Ponta do Sol,32.6667,-17.1,70.43,61,7,3.18,PT,1635364075
Busselton,-33.65,115.3333,45.05,78,66,8.46,AU,1635364076
Gouyave,12.1646,-61.7296,81.37,83,75,20.71,GD,1635364076
Buenaventura,3.8801,-77.0312,84.43,73,81,6.46,CO,1635364076
Zhigansk,66.7697,123.3711,19.09,90,100,21.77,RU,1635364076
Yellowknife,62.456,-114.3525,40.41,99,75,8.05,CA,1635364077
Ribeira Grande,38.5167,-28.7,68.4,73,20,16.11,PT,1635364077
Mount Gambier,-37.8333,140.7667,53.51,100,90,8.05,AU,1635364077
Ndélé,8.4109,20.6473,73.08,89,98,6.49,CF,1635364077
Saldanha,-33.0117,17.9442,60.85,96,100,9.04,ZA,1635364078
Khatanga,71.9667,102.5,4.69,94,100,11.79,RU,1635364078
Port Alfred,-33.5906,26.891,67.12,83,100,30.51,ZA,1635364078
Bengkulu,-3.8004,102.2655,76.42,85,100,3.67,ID,1635364078
Kitob,39.0843,66.8332,52.38,56,100,5.75,UZ,1635364078
Guerrero Negro,27.9769,-114.0611,80.1,26,0,4.88,MX,1635364056
Zhoucheng,35.9122,116.3117,55.87,46,100,2.39,CN,1635364079
Severo-Kuril'sk,50.6789,156.125,42.85,92,100,5.03,RU,1635364079
Medicine Hat,50.0501,-110.6683,57.63,33,75,5.01,CA,1635364021
Bredasdorp,-34.5322,20.0403,66.27,93,100,7.14,ZA,1635364079
Jamestown,42.097,-79.2353,61.09,70,1,5.01,US,1635364080
New Norfolk,-42.7826,147.0587,56.91,56,3,2.39,AU,1635364080
Anadyr,64.75,177.4833,-8.9,76,20,4.0,RU,1635364080
Ancud,-41.8697,-73.8203,62.13,74,2,9.48,CL,1635364080
Chui,-33.6971,-53.4616,77.47,57,0,6.93,UY,1635364016
Ekhabi,53.5102,142.9671,38.66,92,46,10.8,RU,1635364081
Rikitea,-23.1203,-134.9692,73.74,78,21,6.93,PF,1635364081
Vaini,-21.2,-175.2,77.16,83,75,9.22,TO,1635364082
Carnarvon,-24.8667,113.6333,62.67,59,75,12.66,AU,1635364082
Ilhabela,-23.7781,-45.3581,72.18,99,100,4.32,BR,1635364083
George Town,5.4112,100.3354,81.9,88,40,5.01,MY,1635363984
Hobart,-42.8794,147.3294,57.25,69,0,3.0,AU,1635363991
Lázaro Cárdenas,17.9583,-102.2,84.22,72,100,7.25,MX,1635364083
Beloha,-25.1667,45.05,68.65,77,100,15.12,MG,1635364083
Rincon,32.296,-81.2354,72.05,45,20,3.44,US,1635364084
Ponta Delgada,37.7333,-25.6667,66.92,88,75,19.57,PT,1635364084
Codrington,-38.2667,141.9667,54.88,95,94,7.52,AU,1635364084
Kaeo,-35.1,173.7833,61.32,97,100,1.77,NZ,1635364084
Atuona,-9.8,-139.0333,77.92,67,15,15.46,PF,1635363813
Sioux Lookout,50.1001,-91.917,50.07,53,90,14.97,CA,1635364085
Nikolskoye,59.7035,30.7861,46.87,91,100,8.88,RU,1635364085
Albany,42.6001,-73.9662,60.62,68,96,8.08,US,1635363657
Chingola,-12.529,27.8838,73.51,46,18,11.1,ZM,1635364085
Hermanus,-34.4187,19.2345,66.79,90,99,6.04,ZA,1635363983
Shimoda,34.6667,138.95,57.11,72,100,2.13,JP,1635364085
Jesús Carranza,17.4333,-95.0333,88.32,70,38,19.57,MX,1635364086
Souillac,-20.5167,57.5167,72.36,83,20,5.75,MU,1635364086
Barrow,71.2906,-156.7887,19.42,79,75,5.75,US,1635364086
Bristol,41.8334,-71.1662,50.43,93,90,7.0,US,1635364086
Hambantota,6.1241,81.1185,78.21,80,100,7.56,LK,1635364087
Tālbahat,25.05,78.4333,67.69,51,0,1.88,IN,1635364087
Mahébourg,-20.4081,57.7,72.25,83,20,5.75,MU,1635364018
Soteapan,18.2333,-94.8667,82.71,77,70,11.79,MX,1635364087
Cape Town,-33.9258,18.4232,69.1,69,0,1.99,ZA,1635364037
Sisimiut,66.9395,-53.6735,23.97,62,100,5.53,GL,1635364087
Mataura,-46.1927,168.8643,56.43,74,11,4.0,NZ,1635364088
Fairbanks,64.8378,-147.7164,27.23,91,90,4.61,US,1635364012
Shymkent,42.3,69.6,45.19,66,0,2.24,KZ,1635364088
Fleetwood,53.9253,-3.0109,62.49,94,75,19.57,GB,1635363932
Flinders,-34.5833,150.8552,60.21,90,99,1.01,AU,1635364088
Butaritari,3.0707,172.7902,81.72,70,100,6.02,KI,1635364088
Ranot,7.7777,100.3213,80.46,81,100,5.99,TH,1635364089
Nome,64.5011,-165.4064,19.47,69,75,5.75,US,1635364089
Laguna,38.421,-121.4238,73.44,67,1,3.0,US,1635364089
Sola,-13.8833,167.55,79.56,80,100,13.33,VU,1635364090
Airai,-8.9266,125.4092,61.12,81,94,1.99,TL,1635364050
Nagorsk,59.3172,50.8078,34.7,98,100,9.17,RU,1635364090
Saint Paul Harbor,57.79,-152.4072,42.31,49,1,3.44,US,1635364090
Tura,25.5198,90.2201,66.85,94,1,3.87,IN,1635364090
Hanna,51.6334,-111.9018,56.12,37,64,14.0,CA,1635364091
Punta Arenas,-53.15,-70.9167,55.42,54,0,39.12,CL,1635364091
Victor Harbor,-35.5667,138.6167,59.79,93,100,9.24,AU,1635363974
Walvis Bay,-22.9575,14.5053,61.09,82,100,10.36,NA,1635364091
Te Anau,-45.4167,167.7167,51.6,90,80,2.3,NZ,1635364059
Barrhead,55.7992,-4.3929,57.85,94,75,4.0,GB,1635364091
Port Elizabeth,-33.918,25.5701,67.1,94,90,11.5,ZA,1635364092
Ballina,-28.8667,153.5667,65.79,100,10,0.0,AU,1635364092
Mar del Plata,-38.0023,-57.5575,77.02,87,0,11.01,AR,1635364092
Deputatsky,69.3,139.9,1.49,97,100,2.28,RU,1635364093
Puerto Ayora,-0.7393,-90.3518,75.16,89,87,5.99,EC,1635364093
Castro,-24.7911,-50.0119,67.66,85,100,7.92,BR,1635364049
Avarua,-21.2078,-159.775,77.05,73,75,6.91,CK,1635364093
Salalah,17.0151,54.0924,77.09,65,0,2.3,OM,1635363927
Bluff,-46.6,168.3333,54.16,78,10,4.81,NZ,1635364093
Winton,37.3894,-120.6133,69.51,61,75,0.0,US,1635364094
Kapaa,22.0752,-159.319,80.58,82,1,1.99,US,1635364094
Mikuni,36.2171,136.1519,53.51,65,52,6.33,JP,1635364094
Abu Dhabi,24.4667,54.3667,84.22,61,0,4.61,AE,1635364094
Magadan,59.5667,150.8,24.98,79,100,5.17,RU,1635364095
Āzādshahr,34.7909,48.5707,45.41,47,77,2.33,IR,1635364095
Fallon,39.4735,-118.7774,66.92,54,40,3.44,US,1635363850
Hilo,19.7297,-155.09,78.8,71,20,5.75,US,1635364094
Ulladulla,-35.35,150.4667,59.09,55,100,3.74,AU,1635364095
Upernavik,72.7868,-56.1549,23.23,76,89,5.39,GL,1635364095
Kiryat Gat,31.61,34.7642,70.81,63,0,6.22,IL,1635364096
Tadine,-21.55,167.8833,75.65,80,6,7.05,NC,1635364096
Port Blair,11.6667,92.75,81.14,82,100,8.7,IN,1635364096
Bathsheba,13.2167,-59.5167,84.81,65,20,11.5,BB,1635364096
Norman Wells,65.282,-126.8329,23.04,86,90,3.44,CA,1635364097
Salinópolis,-0.6136,-47.3561,83.26,68,85,10.96,BR,1635364097
Krasnosel'kup,65.7,82.4667,5.22,97,87,8.28,RU,1635363997
Tateyama,34.9833,139.8667,61.11,85,100,11.5,JP,1635364097
Adrar,20.5022,-10.0711,74.64,46,47,16.67,MR,1635364097
Saint-Joseph,-21.3667,55.6167,70.18,79,17,7.2,RE,1635364098
Sal Rei,16.1833,-22.9167,80.8,74,75,13.8,CV,1635364098
Kampot,10.6167,104.1833,78.85,91,100,6.06,KH,1635364098
Saint-Philippe,-21.3585,55.7679,71.19,80,34,11.34,RE,1635364099
Pandan,14.0453,124.1694,79.47,83,44,8.21,PH,1635364099
Thompson,55.7435,-97.8558,41.16,100,90,3.44,CA,1635363986
Port-Gentil,-0.7193,8.7815,78.76,89,90,10.36,GA,1635364099
Banda Aceh,5.5577,95.3222,77.99,85,100,4.25,ID,1635364099
Velika Plana,44.3339,21.0768,40.26,71,2,0.27,RS,1635364100
Srednekolymsk,67.45,153.6833,-8.7,98,87,2.59,RU,1635364100
Kurchum,48.5722,83.6542,47.32,55,100,3.44,KZ,1635364100
Fort Dix,40.0298,-74.6185,66.38,67,90,14.97,US,1635364100
Arraial do Cabo,-22.9661,-42.0278,76.96,88,75,6.91,BR,1635364088
Hobyo,5.3505,48.5268,80.6,78,8,8.99,SO,1635364101
Caravelas,-17.7125,-39.2481,77.67,72,11,8.75,BR,1635364101
San Juan,-31.5375,-68.5364,94.62,9,41,4.09,AR,1635364101
Dudinka,69.4058,86.1778,-7.87,98,96,7.52,RU,1635364101
Sitka,57.0531,-135.33,46.29,87,90,14.97,US,1635363652
Hithadhoo,-0.6,73.0833,82.0,74,10,14.79,MV,1635364102
Cockburn Town,21.4612,-71.1419,83.3,69,99,7.78,TC,1635364102
Dingle,10.9995,122.6711,74.82,95,100,7.05,PH,1635364102
Naberera,-4.2,36.9333,66.88,58,86,11.77,TZ,1635364102
Torbat-e Jām,35.244,60.6225,45.18,74,85,6.35,IR,1635364103
Lüderitz,-26.6481,15.1594,62.4,74,100,5.95,NA,1635364103
Vila Velha,-20.3297,-40.2925,80.55,69,20,11.5,BR,1635364017
Española,35.9911,-106.0806,61.27,15,0,11.74,US,1635364103
Tuktoyaktuk,69.4541,-133.0374,28.4,100,90,4.61,CA,1635364103
Quelimane,-17.8786,36.8883,78.75,73,75,13.0,MZ,1635364104
Grand Gaube,-20.0064,57.6608,72.37,72,6,3.0,MU,1635364104
Provideniya,64.3833,-173.3,19.51,63,75,11.18,RU,1635364004
Chokurdakh,70.6333,147.9167,4.14,90,100,5.59,RU,1635364104
Havøysund,70.9963,24.6622,34.03,79,18,21.7,NO,1635364104
Mossamedes,-15.1961,12.1522,66.33,77,13,8.21,AO,1635364105
Esperance,-33.8667,121.9,51.64,66,73,24.29,AU,1635364105
The Valley,18.217,-63.0578,87.66,61,20,11.5,AI,1635364105
Terrace Bay,48.7834,-87.1,47.82,76,100,10.16,CA,1635364105
Westport,41.1415,-73.3579,60.58,79,90,1.01,US,1635364020
La Paz,-16.5,-68.15,64.38,29,40,10.36,BO,1635363903
Phayakkhaphum Phisai,15.5163,103.1937,72.77,89,100,9.44,TH,1635364106
Lebu,-37.6167,-73.65,57.4,76,77,14.27,CL,1635364031
Kemijärvi,66.7131,27.4306,27.19,90,100,8.48,FI,1635364106
Valparaíso,-33.0393,-71.6273,64.04,68,0,5.75,CL,1635364106
Verkh-Usugli,52.7,115.1667,30.22,77,48,1.5,RU,1635364106
Mūl,20.0667,79.6667,66.76,70,3,5.57,IN,1635364107
Paamiut,61.994,-49.6678,31.86,73,49,14.76,GL,1635364107
Aykhal,66.0,111.5,17.24,88,100,24.81,RU,1635364092
Naze,28.3667,129.4833,66.58,63,0,12.64,JP,1635363987
Ushuaia,-54.8,-68.3,53.22,62,40,25.32,AR,1635364107
Husavik,66.0449,-17.3389,35.51,97,100,13.29,IS,1635364107
Touros,-5.1989,-35.4608,85.1,72,6,17.09,BR,1635364108
Palora,-1.7,-77.9333,78.78,69,99,3.71,EC,1635364108
Muros,42.7762,-9.0603,62.83,92,5,4.14,ES,1635364108
Dhadar,28.3305,75.0632,72.34,40,0,2.73,IN,1635364108
Eyl,7.9803,49.8164,79.34,74,18,8.55,SO,1635364109
Berlevåg,70.8578,29.0864,28.4,86,20,10.36,NO,1635364109
Sept-Îles,50.2001,-66.3821,45.12,77,1,4.0,CA,1635364109
Baturité,-4.3286,-38.8847,88.32,43,15,8.61,BR,1635364109
Mahon,39.8885,4.2658,59.56,77,20,5.75,ES,1635363952
Saskylakh,71.9167,114.0833,-9.33,100,100,2.44,RU,1635363992
Vestmanna,62.1564,-7.1664,47.32,100,90,16.11,FO,1635364110
Saint George,37.1041,-113.5841,68.47,37,1,1.01,US,1635364032
Fortuna,40.5982,-124.1573,69.93,72,20,1.99,US,1635363862
Pervoye Maya,56.164,44.7196,40.71,96,100,13.51,RU,1635364110
‘Āhuimanu,21.4447,-157.8378,81.79,71,40,10.36,US,1635364110
Novoagansk,61.9449,76.6625,13.68,97,39,4.79,RU,1635364110
Pālang,23.2167,90.35,80.64,82,12,4.47,BD,1635364111
Dikson,73.5069,80.5464,7.23,91,38,3.04,RU,1635364111
Katsuura,35.1333,140.3,61.2,91,100,8.34,JP,1635364111
Poum,-20.2333,164.0167,75.33,82,2,10.38,NC,1635364111
Margate,51.3813,1.3862,58.3,82,91,4.0,GB,1635364112
Cayenne,4.9333,-52.3333,86.04,79,75,5.01,GF,1635364105
Rupert,42.6191,-113.6772,55.65,58,75,17.27,US,1635364112
Ewo,-0.8725,14.8206,70.41,96,89,2.64,CG,1635364112
La Crosse,43.8014,-91.2396,59.77,57,90,3.0,US,1635363894
Knysna,-34.0363,23.0471,64.78,95,96,6.11,ZA,1635364112
Hong Kong,22.2855,114.1577,77.38,86,85,4.0,HK,1635364079
Azovo,54.6997,73.0237,31.75,59,89,8.84,RU,1635364113
Novyy Svit,47.8059,38.0211,40.26,37,0,1.59,UA,1635364113
Chumikan,54.7183,135.315,31.19,88,10,10.2,RU,1635364113
Kavaratti,10.5669,72.642,81.43,76,100,8.57,IN,1635364113
Lata,40.1629,-8.3327,59.05,62,0,2.1,PT,1635364114
Pisco,-13.7,-76.2167,69.85,64,0,18.41,PE,1635364114
Baruun-Urt,46.6806,113.2792,35.71,43,0,9.48,MN,1635364114
Lorengau,-2.0226,147.2712,81.19,78,21,3.85,PG,1635364115
Bambous Virieux,-20.3428,57.7575,72.21,83,20,5.75,MU,1635364115
Pochutla,15.7432,-96.4661,91.81,61,82,9.62,MX,1635364115
Port Lincoln,-34.7333,135.8667,57.78,88,65,13.8,AU,1635364047
Znamenskoye,57.1281,73.8282,29.61,87,97,5.37,RU,1635364115
Kalevala,65.2,31.1667,28.8,95,100,6.33,RU,1635364116
College,64.8569,-147.8028,27.21,91,75,0.0,US,1635364116
La Ronge,55.1001,-105.2842,41.25,87,90,3.44,CA,1635364116
Tambura,5.6,27.4667,74.52,71,78,1.28,SS,1635364116
Hermiston,45.8404,-119.2895,60.62,52,20,12.66,US,1635364116
Kloulklubed,7.0419,134.2556,77.5,70,74,9.66,PW,1635364117
Tarsus,36.9188,34.8784,69.67,48,90,1.79,TR,1635364117
Puerto Madero,14.7208,-92.4215,84.6,74,42,7.34,MX,1635364117
Sangar,63.9242,127.4739,17.2,89,100,13.42,RU,1635364117
Pacific Grove,36.6177,-121.9166,75.61,64,1,1.99,US,1635363833
Lindi,-10.0,39.7167,76.44,90,26,2.8,TZ,1635364118
Iqaluit,63.7506,-68.5145,33.53,80,40,2.3,CA,1635364118
Necochea,-38.5473,-58.7368,79.9,54,0,7.43,AR,1635364118
Xining,36.6167,101.7667,33.6,82,30,2.06,CN,1635364118
San Quintín,30.4833,-115.95,72.45,45,0,7.14,MX,1635364119
La Asuncion,11.0333,-63.8628,82.13,78,100,18.41,VE,1635364119
Saint-François,46.4154,3.9054,46.67,99,1,2.3,FR,1635364119
Tasiilaq,65.6145,-37.6368,23.0,68,54,4.41,GL,1635364092
Cabo San Lucas,22.8909,-109.9124,88.52,56,1,5.99,MX,1635363914
São Filipe,14.8961,-24.4956,79.03,77,85,9.22,CV,1635364119
Channel-Port aux Basques,47.5702,-59.1367,47.53,64,100,21.09,CA,1635364120
Kiama,-34.6833,150.8667,59.45,93,99,2.8,AU,1635364098
Qujing,25.4833,103.7833,53.87,94,100,3.47,CN,1635364120
La Grande,45.3246,-118.0877,55.0,58,50,8.48,US,1635364120
Cherskiy,68.75,161.3,-18.51,98,7,5.64,RU,1635364097
Mapiripán,2.8892,-72.1256,74.28,92,100,5.35,CO,1635364121
Waingapu,-9.6567,120.2641,80.89,77,74,5.44,ID,1635364121
Kharp,66.8014,65.8081,7.65,93,100,0.47,RU,1635364121
Yangi Marg`ilon,40.4272,71.7189,50.72,53,100,2.3,UZ,1635364121
Charters Towers,-20.1,146.2667,68.81,92,5,8.75,AU,1635364121
Ugoofaaru,5.6667,73.0,81.3,74,100,4.27,MV,1635364122
Mangalore,12.8667,74.8833,79.66,83,75,0.0,IN,1635364122
Linxia Chengguanzhen,35.6003,103.2064,44.58,68,95,1.12,CN,1635364122
Lubao,14.9167,120.55,80.15,88,59,4.09,PH,1635364122
Emba,48.8264,58.1442,34.16,42,7,5.95,KZ,1635364123
Ust'-Ishim,57.6935,71.1665,28.85,97,100,6.26,RU,1635364123
Bahía Solano,6.2262,-77.4044,80.8,79,100,2.86,CO,1635364123
Formosa do Rio Preto,-11.0483,-45.1931,93.06,16,1,9.71,BR,1635364123
Najrān,17.4924,44.1277,70.45,25,5,0.25,SA,1635364124
Fairview,40.8126,-73.999,64.22,64,90,5.75,US,1635363847
Kuching,1.55,110.3333,77.22,94,40,3.44,MY,1635364124
Kutum,14.2,24.6667,76.37,17,5,10.56,SD,1635364112
Arman',59.7,150.1667,24.04,75,100,4.83,RU,1635364124
Tūkrah,32.5341,20.5791,71.26,76,12,6.38,LY,1635364125
Derbent,42.0678,48.2899,49.39,75,30,5.64,RU,1635364125
Pecos,31.4229,-103.4932,70.63,13,1,8.05,US,1635364125
Alamosa,37.4695,-105.87,57.65,27,1,20.71,US,1635364125
Sindhnūr,15.7833,76.7667,68.49,69,9,6.82,IN,1635364126
Mayumba,-3.432,10.6554,75.83,87,100,3.06,GA,1635364126
Maposeni,-10.5833,35.4,70.75,57,40,7.23,TZ,1635364126
Port Hardy,50.6996,-127.4199,50.18,81,75,5.75,CA,1635364126
Ambon City,-3.6954,128.1814,77.14,94,40,5.75,ID,1635364005
Gamba,-2.65,10.0,75.36,88,100,3.85,GA,1635364127
Humaitá,-7.5061,-63.0208,80.04,77,97,2.24,BR,1635364127
Ambovombe,-25.1667,46.0833,69.06,82,98,15.86,MG,1635364127
Yinchuan,38.4681,106.2731,47.73,43,7,3.98,CN,1635364127
North Bend,43.4065,-124.2243,66.24,83,75,10.36,US,1635364128
Kaitangata,-46.2817,169.8464,55.26,79,9,3.44,NZ,1635364128
Acambay,19.9558,-99.8417,70.57,46,30,8.14,MX,1635364128
Kirundo Province,-2.5833,30.1667,68.77,90,85,1.7,BI,1635364128
Ilo,-17.6394,-71.3375,66.47,73,4,8.14,PE,1635364129
Frontera,26.9333,-101.45,86.32,39,0,4.0,MX,1635364129
Padang,-0.9492,100.3543,76.19,77,82,3.51,ID,1635364129
Beyneu,45.3167,55.2,37.38,51,0,1.25,KZ,1635364129
Olafsvik,64.8945,-23.7142,40.08,93,100,23.94,IS,1635364130
San Lorenzo,-25.3333,-57.5333,94.59,32,40,8.99,PY,1635364130
Lagoa,39.05,-27.9833,67.42,65,91,20.67,PT,1635364130
Scottsbluff,41.8666,-103.6672,59.81,32,1,11.99,US,1635364130
Narsaq,60.9167,-46.05,28.2,68,18,6.02,GL,1635364131
Inhambane,-23.865,35.3833,73.38,78,40,7.0,MZ,1635364000
Bon Accord,53.8335,-113.4187,53.78,54,20,8.05,CA,1635364131
Suez,29.9737,32.5263,73.2,51,4,7.25,EG,1635364131
Polovragi,45.1833,23.8,42.04,64,19,3.11,RO,1635364131
Zastron,-30.3023,27.084,60.85,72,100,9.78,ZA,1635364132
Nanchang,28.6833,115.8833,61.43,69,19,3.0,CN,1635363902
Portobelo,9.55,-79.65,84.85,81,100,6.85,PA,1635364132
Goderich,43.7501,-81.7165,62.04,82,70,9.22,CA,1635363924
Sibolga,1.7427,98.7792,76.05,88,78,2.53,ID,1635364132
Puerto Escondido,15.85,-97.0667,86.95,71,40,10.27,MX,1635364132
Tiksi,71.6872,128.8694,9.01,96,93,3.96,RU,1635364030
Lavrentiya,65.5833,-171.0,13.86,73,59,7.85,RU,1635364128
Gwadar,25.1216,62.3254,78.39,64,0,4.47,PK,1635364133
Aras,42.5617,-2.356,54.99,85,0,0.0,ES,1635364133
Hirara,24.8,125.2833,74.89,61,75,18.16,JP,1635364133
Izumo,35.3667,132.7667,51.75,76,0,1.25,JP,1635364133
Mount Isa,-20.7333,139.5,78.57,69,40,6.91,AU,1635364134
Geraldton,-28.7667,114.6,52.21,87,40,4.61,AU,1635364134
Vardø,70.3705,31.1107,31.98,74,40,5.75,NO,1635364134
Karratha,-20.7377,116.8463,73.44,31,1,9.57,AU,1635364115
Yulara,-25.2406,130.9889,73.24,27,83,8.05,AU,1635364006
Chernyshevskiy,63.0128,112.4714,21.56,77,98,17.29,RU,1635364134
Emerald,-23.5333,148.1667,71.98,72,2,9.22,AU,1635364135
Waipawa,-41.4122,175.5153,57.04,73,97,1.19,NZ,1635364135
East London,-33.0153,27.9116,67.42,82,100,23.8,ZA,1635364135
Vanimo,-2.6741,141.3028,78.06,88,97,4.29,PG,1635364135
Lambaréné,-0.7001,10.2406,73.9,97,100,7.02,GA,1635364136
Carroll,39.5501,-77.0164,70.12,58,1,1.99,US,1635364136
Clyde River,70.4692,-68.5914,32.23,100,75,5.75,CA,1635364039
Mugur-Aksy,50.35,90.5,24.53,76,100,5.28,RU,1635364136
Prince Rupert,54.3161,-130.3201,49.69,69,92,16.11,CA,1635363916
San Patricio,28.017,-97.5169,91.49,15,0,28.27,US,1635364025
Anse-Bertrand,16.4721,-61.5078,82.94,100,100,12.75,GP,1635364137
Carutapera,-1.195,-46.02,82.94,69,79,8.95,BR,1635364137
San Francisco del Mar Viejo,16.2333,-94.65,85.1,74,18,12.37,MX,1635364137
Derveni,38.1333,22.4167,62.01,74,48,6.31,GR,1635364137
Bandarbeyla,9.4942,50.8122,78.17,77,5,9.55,SO,1635364137
Camocim,-2.9022,-40.8411,83.71,65,13,18.45,BR,1635364138
Bacolod City,10.6667,122.95,77.22,87,100,7.96,PH,1635364138
Djambala,-2.5447,14.7533,65.41,95,79,2.15,CG,1635364138
Ambilobe,-13.2,49.05,74.35,76,57,2.86,MG,1635364138
Leningradskiy,69.3833,178.4167,10.0,93,100,20.31,RU,1635364010
Oranjemund,-28.55,16.4333,65.97,62,100,3.58,NA,1635364139
Manggar,-2.8833,108.2667,80.65,80,100,1.28,ID,1635364139
Martapura,-3.4167,114.85,75.29,100,87,1.14,ID,1635364139
Hasaki,35.7333,140.8333,57.6,83,100,3.36,JP,1635364139
Novorzhev,57.0294,29.3338,47.32,92,100,14.56,RU,1635364140
Soni,-4.85,38.3667,60.67,77,1,1.34,TZ,1635364140
Urucará,-2.5364,-57.76,79.56,86,98,2.48,BR,1635364140
Zhaozhou,45.6833,125.3167,38.62,60,0,3.4,CN,1635364141
Gizo Government Station,-8.103,156.8419,82.49,77,26,7.94,SB,1635364141
Broome,42.2506,-75.833,58.32,70,1,4.0,US,1635364141
Nara,34.6851,135.8049,57.97,84,0,1.28,JP,1635364142
Quatre Cocos,-20.2078,57.7625,72.09,72,12,10.27,MU,1635364143
Kosh-Agach,50.0,88.6667,26.04,73,55,2.13,RU,1635364143
Bubaque,11.2833,-15.8333,82.65,76,38,8.19,GW,1635364143
Aklavik,68.2191,-135.0107,27.43,90,97,3.83,CA,1635364129
Garissa,-0.4536,39.6401,79.11,64,77,18.37,KE,1635364144
Agadir,30.4202,-9.5982,66.65,79,0,2.15,MA,1635363846
Acaraú,-2.8856,-40.12,82.83,66,30,17.74,BR,1635364144
Constitución,-35.3333,-72.4167,63.59,66,17,12.73,CL,1635364144
Matara,5.9485,80.5353,76.26,90,100,6.98,LK,1635364145
Dongsheng,39.8161,109.9776,40.8,51,75,5.91,CN,1635364145
Ust-Maya,60.4167,134.5333,23.11,98,100,3.85,RU,1635364145
Disna,55.568,28.1971,48.83,91,100,19.46,BY,1635364146
Fuerte Olimpo,-21.0415,-57.8738,95.47,32,100,6.71,PY,1635364146
Aswān,24.0934,32.907,82.98,35,0,10.78,EG,1635364146
Strelka,58.0728,93.0344,27.57,62,30,8.16,RU,1635364146
Al Bardīyah,31.7561,25.0865,72.27,86,85,9.62,LY,1635364147
Nelipyno,48.561,23.0315,49.15,77,89,2.48,UA,1635364147
Valdagno,45.6483,11.3064,52.81,73,0,1.01,IT,1635364147
Vila,42.0304,-8.1588,51.93,76,11,3.36,PT,1635364147
Sur,22.5667,59.5289,78.76,69,12,9.35,OM,1635364148
Puerto Colombia,10.9878,-74.9547,89.69,69,54,1.16,CO,1635364148
Kruisfontein,-34.0033,24.7314,64.89,82,100,11.21,ZA,1635364148
Santa Maria da Vitória,-13.3947,-44.1886,89.2,33,3,6.31,BR,1635364148
Tacuatí,-23.45,-56.5833,91.76,33,72,5.17,PY,1635364148
Yerköy,39.6381,34.4672,51.49,39,48,2.13,TR,1635364149
Forsytheganj,52.6333,29.7333,43.5,85,88,9.33,BY,1635364149
Maragogi,-9.0122,-35.2225,77.47,79,46,8.63,BR,1635364149
Lisala,2.15,21.5167,72.64,87,99,1.5,CD,1635364150
Brae,60.3964,-1.353,51.71,87,8,13.27,GB,1635364150
Alofi,-19.0595,-169.9187,76.89,73,100,14.97,NU,1635364150
Mastic Beach,40.7668,-72.8521,58.15,83,90,1.99,US,1635364099
Loíza,18.4313,-65.8802,91.38,55,20,6.91,PR,1635364150
Kangaatsiaq,68.3065,-53.4641,20.73,63,100,7.96,GL,1635364151
Port Macquarie,-31.4333,152.9167,65.89,92,96,6.42,AU,1635364024
Semnan,35.5729,53.3971,50.14,53,28,2.95,IR,1635364151
Warmbad,-28.45,18.7333,77.86,39,100,4.63,NA,1635364151
Bonwapitse,-23.0766,26.7037,69.51,60,100,16.67,BW,1635364151
Whitehorse,60.7161,-135.0538,34.11,93,90,1.99,CA,1635364152
Lerik,38.7726,48.4128,29.84,78,0,2.84,AZ,1635364152
Birao,10.2849,22.7882,79.66,49,21,4.85,CF,1635364152
Gondanglegi,-7.7479,112.0132,76.21,87,99,6.38,ID,1635364152
Thongwa,16.7619,96.5278,78.96,88,76,5.01,MM,1635364153
Karasburg,-28.0167,18.75,75.31,37,100,11.41,NA,1635364153
Taunggyi,20.7833,97.0333,59.7,96,63,1.34,MM,1635364153
Farmington,36.7281,-108.2187,52.48,38,1,24.16,US,1635363987
Bumba,2.1833,22.4667,71.78,95,68,0.38,CD,1635364153
Port Hawkesbury,45.6169,-61.3485,49.73,87,90,11.01,CA,1635364154
Novo Aripuanã,-5.1206,-60.3797,83.1,75,95,3.47,BR,1635364154
Nizhniy Tsasuchey,50.5167,115.1333,36.21,62,7,7.76,RU,1635364154
Klaksvík,62.2266,-6.589,49.12,81,100,21.18,FO,1635364102
Ahipara,-35.1667,173.1667,62.42,78,100,4.88,NZ,1635364154
Dukat,62.55,155.55,2.03,92,100,4.63,RU,1635364155
Athabasca,54.7169,-113.2854,49.82,40,85,12.01,CA,1635363872
Puno,-15.8333,-70.0333,56.97,40,22,16.15,PE,1635363904
Pueblo Nuevo,23.3833,-105.3833,69.93,42,0,6.06,MX,1635364155
Dossor,47.5272,52.9811,35.31,69,5,7.18,KZ,1635364155
Monrovia,6.3005,-10.7969,82.17,83,41,7.31,LR,1635364040
Takoradze,4.8845,-1.7554,79.02,83,16,8.3,GH,1635364151
Kenai,60.5544,-151.2583,34.14,84,90,0.0,US,1635364155
Massakory,12.996,15.7293,87.89,12,20,9.33,TD,1635364156
Båtsfjord,70.6345,29.7185,32.0,86,20,2.3,NO,1635364156
Hofn,64.2539,-15.2082,35.62,87,0,4.61,IS,1635364156
Kombolcha,11.0816,39.7434,58.96,50,13,1.54,ET,1635364156
Talnakh,69.4865,88.3972,-3.39,99,94,9.66,RU,1635364087
Saint Anthony,45.0205,-93.218,54.25,69,90,5.99,US,1635364056
Kavieng,-2.5744,150.7967,81.59,79,23,11.39,PG,1635364100
Bethel,41.3712,-73.414,58.1,79,90,1.01,US,1635364126
Indramayu,-6.3264,108.32,81.59,75,100,4.7,ID,1635364157
Ivaiporã,-24.2478,-51.6847,76.62,69,98,4.59,BR,1635364157
Qaqortoq,60.7167,-46.0333,29.8,73,8,4.72,GL,1635364128
Maceió,-9.6658,-35.7353,83.64,74,20,12.66,BR,1635364157
Grindavik,63.8424,-22.4338,39.67,87,0,8.05,IS,1635364157
Itapeva,-23.9822,-48.8756,67.42,91,100,9.89,BR,1635364158
Peniche,39.3558,-9.3811,68.61,74,0,3.53,PT,1635364142
Truth or Consequences,33.1284,-107.2528,67.91,18,1,5.75,US,1635364158
Tigil',57.8,158.6667,29.17,98,100,2.82,RU,1635364158
Avesta,60.1455,16.1679,48.92,99,3,3.56,SE,1635364159
Sakakah,29.9697,40.2064,76.57,27,34,7.63,SA,1635364159
Hamilton,39.1834,-84.5333,59.36,66,1,1.01,US,1635363976
Meulaboh,4.1363,96.1285,74.5,91,100,3.94,ID,1635364159
Shimokizukuri,40.8061,140.3861,57.11,64,13,11.81,JP,1635364159
Lichinga,-13.3128,35.2406,68.09,83,75,11.5,MZ,1635364160
Mercedes,-34.6515,-59.4307,95.86,14,0,11.99,AR,1635364160
Río Bueno,-40.3167,-72.9667,66.34,39,0,2.82,CL,1635364160
Nueva Loja,0.0847,-76.8828,85.48,65,40,4.61,EC,1635364099
Antsohihy,-14.8796,47.9875,76.05,80,0,2.28,MG,1635364160
Shalyhyne,51.5717,34.1217,39.92,90,67,7.11,UA,1635364161
Antalaha,-14.9003,50.2788,70.3,91,11,3.56,MG,1635364161
Mareeba,-17.0,145.4333,70.52,94,77,4.7,AU,1635364161
Chatrapur,19.35,84.9833,78.01,80,92,8.84,IN,1635364161
Zalari,53.5584,102.5065,36.63,53,100,9.01,RU,1635364162
Kelvington,52.1667,-103.5343,47.86,47,0,5.59,CA,1635364085
Ostrovnoy,68.0531,39.5131,30.97,75,97,11.52,RU,1635364162
Bacoor City,14.4167,120.95,80.08,83,40,0.0,PH,1635364162
Torbay,47.6666,-52.7314,42.28,83,75,13.8,CA,1635364162
Tromsø,69.6496,18.957,33.82,55,0,11.5,NO,1635364163
Arrondissement du Havre,49.5833,0.3333,55.17,82,0,5.75,FR,1635364163
Jieshi,22.8134,115.8257,76.95,82,94,17.69,CN,1635364163
Kalabo,-14.97,22.6814,82.06,28,68,4.9,ZM,1635364163
Camacha,33.0833,-16.3333,66.96,73,20,6.91,PT,1635364002
Bonavista,48.6499,-53.1147,43.12,65,100,14.38,CA,1635364164
Yatou,37.15,122.3833,51.66,65,59,6.06,CN,1635364164
Payo,-3.7508,103.6372,74.55,91,100,1.39,ID,1635364164
Ixtapa,20.7,-105.2,85.23,80,87,7.0,MX,1635364137
Pajapan,18.25,-94.7,86.68,73,60,12.44,MX,1635364165
Tashla,51.7716,52.7427,37.4,51,73,13.76,RU,1635364165
Khudumelapye,-23.8833,24.75,70.65,57,100,12.35,BW,1635364165
Kilindoni,-7.9139,39.6668,78.85,78,79,11.56,TZ,1635364165
Vytegra,61.0064,36.4481,42.42,92,100,9.31,RU,1635364165
Longyearbyen,78.2186,15.6401,22.84,63,75,10.36,SJ,1635364163
Sundsvall,62.3913,17.3063,41.97,99,0,4.61,SE,1635364166
Pangnirtung,66.1451,-65.7125,32.0,74,75,3.44,CA,1635364125
Nanortalik,60.1432,-45.2371,35.42,65,1,9.01,GL,1635363981
Ocampo,21.65,-101.5,76.28,30,80,9.15,MX,1635364166
San Cristobal,7.7669,-72.225,78.98,69,100,4.79,VE,1635364040
Nurobod,40.9056,69.8023,52.65,44,100,0.76,UZ,1635364166
Aitape,-3.1374,142.3475,77.94,87,93,4.16,PG,1635364167
George,-33.963,22.4617,62.15,94,98,5.17,ZA,1635364167
Coyhaique,-45.5752,-72.0662,60.75,44,75,13.8,CL,1635364167
Ketchikan,55.3422,-131.6461,46.87,76,75,6.91,US,1635364167
Kerrobert,51.9168,-109.1348,52.0,29,3,14.9,CA,1635364168
Rawson,-43.3002,-65.1023,82.87,25,0,18.54,AR,1635364121
Columbus,39.9612,-82.9988,53.47,81,90,0.0,US,1635364072
Paita,-5.0892,-81.1144,72.16,76,88,19.82,PE,1635364168
Paraty,-23.2178,-44.7131,81.5,99,100,1.21,BR,1635364168
Kisangani,0.5167,25.2,71.35,97,98,1.5,CD,1635364169
Mineros,-17.1167,-63.2333,92.79,26,38,2.57,BO,1635364169
Otavi,-19.65,17.3333,65.84,86,98,17.2,NA,1635364169
Kahului,20.8947,-156.47,82.98,69,20,12.66,US,1635364169
Pevek,69.7008,170.3133,9.55,93,100,12.1,RU,1635364136
Faanui,-16.4833,-151.75,79.92,76,59,8.5,PF,1635364127
Los Llanos de Aridane,28.6585,-17.9182,67.75,78,20,1.99,ES,1635364170
Vao,-22.6667,167.4833,72.45,85,5,13.87,NC,1635364170
Saint-Pierre,-21.3393,55.4781,71.28,71,0,6.91,RE,1635364156
Noumea,-22.2763,166.4572,75.99,99,44,9.35,NC,1635364170
Hódmezővásárhely,46.4167,20.3333,47.32,53,18,2.82,HU,1635364170
Vitim,59.4511,112.5578,29.98,76,63,11.48,RU,1635364170
Monterey,36.2505,-121.2516,69.26,27,0,9.6,US,1635364171
Mnogovershinnyy,53.9353,139.9242,34.7,95,100,5.88,RU,1635364143
Luganville,-15.5333,167.1667,79.52,83,100,6.2,VU,1635364171
La Reforma,25.0833,-108.05,93.74,45,1,10.02,MX,1635364171
Chlórakas,34.8042,32.4083,67.23,60,0,4.61,CY,1635364172
Yanam,16.7333,82.2167,75.72,90,13,3.78,IN,1635364172
Palestine,31.9216,35.2033,62.35,78,0,2.04,PS,1635364172
Teleneşti,47.4997,28.3656,50.85,70,55,3.94,MD,1635364172
Owando,-0.4819,15.8999,68.92,99,56,1.39,CG,1635364173
Mackay,-21.15,149.2,73.04,100,40,4.61,AU,1635364173
Marrakesh,31.6315,-8.0083,69.87,52,40,3.44,MA,1635364173
San Rafael,-34.6177,-68.3301,92.43,11,26,11.45,AR,1635364173
Abu Samrah,35.3029,37.1841,67.89,33,100,1.07,SY,1635364174
Tahoua,14.8888,5.2692,88.63,14,3,9.8,NE,1635364174
Picos,-7.0769,-41.4669,96.78,21,18,9.31,BR,1635364174
Buzuluk,52.7807,52.2635,38.8,52,100,15.08,RU,1635364174
Angoche,-16.2325,39.9086,78.84,67,94,15.23,MZ,1635364175
Benghazi,32.1167,20.0667,72.7,76,23,7.65,LY,1635363996
Curaçá,-8.9903,-39.9094,91.49,30,13,21.43,BR,1635364175
Charter Township of Clinton,42.587,-82.9199,55.02,88,90,1.01,US,1635363923
Sitrah,26.1547,50.6206,84.36,51,0,1.99,BH,1635364175
Chake Chake,-5.2459,39.7666,76.3,81,1,6.31,TZ,1635364175
Sihorā,23.4833,80.1167,63.9,49,0,4.0,IN,1635364176
Florianópolis,-27.6146,-48.5012,81.41,36,0,9.22,BR,1635364176
Selenginsk,52.0064,106.8647,21.61,76,24,3.53,RU,1635364176
Harper,4.375,-7.7169,77.56,88,83,8.16,LR,1635364176
Acapulco de Juárez,16.8634,-99.8901,84.63,73,22,5.79,MX,1635364177
Nouadhibou,20.931,-17.0347,68.5,86,28,18.28,MR,1635364132
Ilulissat,69.2167,-51.1,15.82,48,75,10.36,GL,1635364126
Kismayo,-0.3582,42.5454,79.16,83,6,13.13,SO,1635364177
Malé,4.1748,73.5089,82.35,83,75,5.75,MV,1635364177
Dom Pedrito,-30.9828,-54.6731,84.2,56,0,6.29,BR,1635364177
Pālghar,19.6833,72.75,82.38,57,5,7.18,IN,1635364178
Balkanabat,39.5108,54.3671,48.51,69,7,7.45,TM,1635364178
Santa Cruz de Tenerife,28.4682,-16.2546,74.28,77,40,5.01,ES,1635364178
High Level,58.5169,-117.136,33.91,100,90,2.3,CA,1635364167
Trebukhiv,50.4843,30.903,46.92,81,75,4.47,UA,1635364178
Yar-Sale,66.8333,70.8333,12.36,91,38,6.76,RU,1635364179
São João da Barra,-21.6403,-41.0511,80.69,84,53,13.8,BR,1635364179
Agutaya,11.148,120.9417,82.85,79,100,24.85,PH,1635364179
Presidente Epitácio,-21.7633,-52.1156,83.28,66,98,5.61,BR,1635364179
Manakara,-22.1333,48.0167,72.48,85,8,5.39,MG,1635364180
Liverpool,53.4106,-2.9779,62.69,77,20,7.0,GB,1635364058
Ubinskoye,55.3068,79.6802,28.04,66,85,9.06,RU,1635364146
Marsh Harbour,26.5412,-77.0636,81.16,64,6,15.66,BS,1635364180
Anagni,41.7447,13.1527,57.56,65,100,4.45,IT,1635364180
Dingli,35.8614,14.3822,66.36,77,75,17.27,MT,1635364180
Akhmīm,26.5622,31.745,79.65,20,0,5.66,EG,1635364181
San Andrés,12.5847,-81.7006,84.22,79,75,8.05,CO,1635364181
Enshi,30.3,109.4833,56.07,89,100,1.1,CN,1635364181
Karpathos,35.507,27.2132,64.36,72,100,11.5,GR,1635364181
Coquimbo,-29.9533,-71.3436,62.33,72,20,12.66,CL,1635363900
Petropavlovsk-Kamchatskiy,53.0452,158.6483,27.19,100,0,2.24,RU,1635364182
Wenatchee,47.4235,-120.3103,59.43,50,72,1.99,US,1635364011
Biankouma,7.7391,-7.6138,69.85,94,65,3.06,CI,1635364182
Arroyo de la Encomienda,41.6096,-4.7969,56.61,59,0,1.14,ES,1635364182
Tungor,53.3808,142.9564,38.07,94,51,10.07,RU,1635364182
Nyzy,50.7828,34.7844,41.54,81,48,6.17,UA,1635364183
Kota Kinabalu,5.9749,116.0724,75.18,100,20,5.75,MY,1635364183
Terrace,54.5163,-128.6035,47.43,87,75,23.02,CA,1635364183
Ürümqi,43.801,87.6005,41.95,49,0,2.24,CN,1635363985
Koygorodok,60.445,50.9968,33.35,98,100,6.93,RU,1635364183
Okhotsk,59.3833,143.3,19.42,86,75,7.4,RU,1635364159
Akdepe,42.0551,59.3788,42.89,74,100,4.29,TM,1635364183
Bilibino,68.0546,166.4372,-22.36,99,34,2.84,RU,1635364184
Ulaangom,49.9811,92.0667,36.07,66,100,1.9,MN,1635364184
Pervomayskiy,53.2485,40.2871,42.13,72,100,11.92,RU,1635364184
Chapais,49.7834,-74.8492,49.78,51,100,4.54,CA,1635364066
Praia,14.9215,-23.5087,81.14,74,40,19.57,CV,1635364185
Proletariy,58.4342,31.7046,43.38,91,100,12.15,RU,1635364185
Lagos,6.5833,3.75,80.92,86,75,3.78,NG,1635364185
Ginir,7.1333,40.7,57.88,85,76,4.41,ET,1635364185
Bodden Town,19.2833,-81.25,89.01,69,20,10.36,KY,1635364186
Kon Tum,14.35,108.0,67.95,97,30,2.86,VN,1635364186
Bhīm Tāl,29.35,79.5667,50.34,73,0,4.68,IN,1635364186
Hurghada,27.2574,33.8129,76.77,44,0,6.02,EG,1635364186
Xichang,27.8964,102.2634,55.87,85,86,2.3,CN,1635364186
Tabuk,17.4189,121.4443,69.6,90,13,3.65,PH,1635364187
Fengzhen,40.4394,113.1536,43.38,39,100,1.7,CN,1635364187
Panabá,21.2833,-88.2667,95.0,42,83,13.91,MX,1635364172
Kibala,9.1104,18.3463,82.35,83,20,0.0,TD,1635364185
Lompoc,34.6391,-120.4579,84.02,46,1,11.5,US,1635364056
Rocha,-34.4833,-54.3333,79.92,59,0,6.29,UY,1635363926
Shingū,33.7333,135.9833,55.29,78,0,7.07,JP,1635364187
Redmond,47.674,-122.1215,56.44,76,100,3.0,US,1635364188
Havre-St-Pierre,50.2334,-63.5986,46.76,66,1,6.91,CA,1635364188
Kousséri,12.0769,15.0306,85.96,19,21,5.75,CM,1635364188
Taoudenni,22.6783,-3.9836,89.4,15,94,14.7,ML,1635364188
Decatur,39.8403,-88.9548,63.72,58,1,13.8,US,1635364189
Barreirinhas,-2.7469,-42.8264,83.62,67,6,11.74,BR,1635364189
Riyadh,24.6877,46.7219,78.94,23,46,9.78,SA,1635364083
Tuatapere,-46.1333,167.6833,55.78,82,11,4.36,NZ,1635364189
Kushima,31.4583,131.2333,56.12,79,0,4.43,JP,1635364189
Bonfim,3.0833,-59.95,88.11,56,93,5.03,BR,1635364189
Ngunguru,-35.6167,174.5,61.16,76,100,2.8,NZ,1635364190
Ugento,39.9263,18.1574,55.45,74,22,9.78,IT,1635364190
Ferme-Neuve,46.7001,-75.4493,56.98,61,100,6.58,CA,1635364190
Neuquén,-38.9516,-68.0591,85.89,20,0,8.05,AR,1635364190
Darhan,49.4867,105.9228,37.87,51,67,1.19,MN,1635364191
Baykit,61.67,96.37,20.35,84,100,14.56,RU,1635364191
Kamenka,51.3223,42.7678,37.29,43,4,11.59,RU,1635364191
Wagar,16.1525,36.2032,87.35,39,71,10.96,SD,1635364191
Baghmara,23.795,86.2085,72.57,59,94,5.93,IN,1635364192
Goiás,-15.5807,-49.6362,86.36,46,74,5.75,BR,1635364192
Faya,18.3851,42.4509,60.91,57,59,4.0,SA,1635364192
Bulawayo,-20.15,28.5833,61.77,81,18,16.13,ZW,1635364192
Marzuq,14.4,46.4667,70.74,56,21,4.52,YE,1635364192
Jinchang,38.4953,102.1739,41.47,48,6,3.74,CN,1635364193
Benxi,41.2886,123.765,46.38,68,0,2.64,CN,1635364193
Bam,29.106,58.357,66.85,21,11,4.85,IR,1635364191
Barra dos Coqueiros,-10.9089,-37.0386,82.42,69,40,9.22,BR,1635364193
Manado,1.487,124.8455,75.97,94,40,0.0,ID,1635364193
Fayetteville,35.0527,-78.8784,72.48,49,1,4.0,US,1635364194
Alugan,12.2188,125.4808,80.17,81,95,8.7,PH,1635364194
Hobro,56.6431,9.7903,57.43,96,100,3.0,DK,1635364194
Klichka,50.4457,117.996,31.93,62,9,3.62,RU,1635364194
Marawi,7.9986,124.2928,64.65,92,100,3.42,PH,1635364068
Mandapam,9.2833,79.1167,82.08,75,100,5.59,IN,1635364195
Zyryanka,65.75,150.85,-1.7,95,38,6.17,RU,1635364195
Labuan,5.2767,115.2417,77.36,94,20,0.0,MY,1635364195
Ruteng,-8.6136,120.4721,63.54,91,76,1.68,ID,1635364195
Malinovskiy,61.1953,62.8397,28.81,96,100,8.08,RU,1635364196
Taltal,-25.4,-70.4833,67.05,63,22,7.99,CL,1635363918
Henties Bay,-22.116,14.2845,60.85,81,94,5.28,NA,1635364196
Bosaso,11.2842,49.1816,79.38,60,0,3.58,SO,1635364196
Pechenga,69.5259,31.1703,25.66,81,21,3.36,RU,1635364196
Chirongui,-12.9319,45.1483,76.93,72,0,4.38,YT,1635364197
Lianhe,47.1333,129.2667,32.52,94,6,3.96,CN,1635364197
Tomatlán,19.9333,-105.25,89.19,57,100,7.76,MX,1635364197
