,City,Lat,Lng,Max Temp,Humidity,Cloudiness,Wind Speed,Country,Date
0,Agadez,19.75,10.25,84.85,12,0,5.48,NE,1635185723
1,Thanh Hoa,19.8,105.7667,67.19,84,3,2.35,VN,1635185724
2,Tasiilaq,65.6145,-37.6368,33.96,82,100,21.12,GL,1635185724
3,Pfarrkirchen,48.432,12.9381,47.86,82,100,0.51,DE,1635185724
4,Cape Town,-33.9258,18.4232,68.27,63,13,3.0,ZA,1635185701
5,Avarua,-21.2078,-159.775,75.25,64,20,9.22,CK,1635185724
6,Qaanaaq,77.484,-69.3632,-2.02,59,16,13.44,GL,1635185716
7,Ambon City,-3.6954,128.1814,77.14,94,40,4.61,ID,1635185725
8,Qaqortoq,60.7167,-46.0333,30.7,47,5,4.97,GL,1635185725
9,Ushuaia,-54.8,-68.3,33.46,86,75,24.16,AR,1635185725
10,Nanortalik,60.1432,-45.2371,32.85,67,21,5.77,GL,1635185691
11,Iqaluit,63.7506,-68.5145,33.53,74,75,5.99,CA,1635185725
12,Plettenberg Bay,-34.0527,23.3716,60.04,90,5,10.45,ZA,1635185726
13,Codrington,-38.2667,141.9667,38.73,92,2,7.67,AU,1635185726
14,Leningradskiy,69.3833,178.4167,6.57,94,100,13.91,RU,1635185726
15,Siloam Springs,36.1881,-94.5405,60.46,80,90,0.0,US,1635185726
16,Puerto Ayora,-0.7393,-90.3518,76.96,94,59,3.0,EC,1635185727
17,Port Elizabeth,-33.918,25.5701,64.69,77,0,14.97,ZA,1635185727
18,Port Blair,11.6667,92.75,80.1,84,34,7.18,IN,1635185727
19,Alpena,45.0617,-83.4327,51.19,77,90,4.0,US,1635185462
20,Galesong,-5.3166,119.3661,77.02,76,100,3.67,ID,1635185727
21,Sakaiminato,35.55,133.2333,51.78,93,40,5.75,JP,1635185728
22,Busselton,-33.65,115.3333,41.04,71,73,4.38,AU,1635185728
23,Lorengau,-2.0226,147.2712,81.23,77,37,4.43,PG,1635185728
24,Punta Arenas,-53.15,-70.9167,44.71,49,40,23.02,CL,1635185728
25,Kushiro,42.975,144.3747,45.81,83,67,2.44,JP,1635185729
26,Buala,-8.145,159.5921,78.73,82,16,3.27,SB,1635185729
27,Beringovskiy,63.05,179.3167,10.72,77,100,5.77,RU,1635185729
28,San Patricio,28.017,-97.5169,91.38,48,6,7.27,US,1635185729
29,Kapaa,22.0752,-159.319,76.98,92,20,12.66,US,1635185730
30,La Libertad,-2.2333,-80.9,78.46,73,40,9.22,EC,1635185730
31,Jamestown,42.097,-79.2353,69.12,65,75,8.99,US,1635185519
32,Hong Kong,22.2855,114.1577,75.33,78,97,1.01,HK,1635185730
33,Vaini,-21.2,-175.2,73.56,83,20,5.75,TO,1635185730
34,Chui,-33.6971,-53.4616,79.07,44,0,18.66,UY,1635185731
35,Ergani,38.2653,39.7621,59.72,40,100,9.08,TR,1635185731
36,Dingle,10.9995,122.6711,75.31,91,100,4.21,PH,1635185731
37,Dunedin,-45.8742,170.5036,55.8,95,94,5.99,NZ,1635185563
38,Longyearbyen,78.2186,15.6401,21.04,58,40,20.71,SJ,1635185731
39,Ranchuelo,22.3772,-80.1489,88.88,57,92,3.62,CU,1635185732
40,Lavrentiya,65.5833,-171.0,17.46,80,100,10.04,RU,1635185732
41,Santiago del Estero,-27.7951,-64.2615,95.81,9,0,12.82,AR,1635185732
42,Kununurra,-15.7667,128.7333,80.58,74,79,4.61,AU,1635185732
43,Mataura,-46.1927,168.8643,50.47,97,98,2.66,NZ,1635185733
44,Aswān,24.0934,32.907,81.0,20,0,9.91,EG,1635185733
45,Hobart,-42.8794,147.3294,49.86,78,90,6.91,AU,1635185546
46,Hasaki,35.7333,140.8333,59.4,88,100,25.59,JP,1635185733
47,Merritt Island,28.5392,-80.672,89.98,72,20,6.91,US,1635185199
48,Severo-Kuril'sk,50.6789,156.125,38.84,83,21,10.36,RU,1635185733
49,Nizhniy Tsasuchey,50.5167,115.1333,35.89,66,35,16.87,RU,1635185534
50,George Town,5.4112,100.3354,81.9,85,40,2.3,MY,1635185734
51,Bluff,-46.6,168.3333,51.31,93,91,7.09,NZ,1635185734
52,Atuona,-9.8,-139.0333,77.25,77,68,15.75,PF,1635185734
53,Cayenne,4.9333,-52.3333,78.84,90,100,5.01,GF,1635185734
54,Constitución,-35.3333,-72.4167,66.47,56,72,20.89,CL,1635185735
55,Quatre Cocos,-20.2078,57.7625,73.51,70,23,16.82,MU,1635185735
56,Beyneu,45.3167,55.2,55.44,38,100,17.25,KZ,1635185735
57,Umluj,25.0213,37.2685,79.88,60,0,6.49,SA,1635185442
58,Lüderitz,-26.6481,15.1594,59.59,81,9,4.63,NA,1635185735
59,Nabire,-3.3667,135.4833,75.11,91,98,2.51,ID,1635185736
60,Magán,39.9683,-3.931,66.47,33,100,1.23,ES,1635185736
61,Najrān,17.4924,44.1277,70.45,15,26,2.55,SA,1635185736
62,Bambanglipuro,-7.95,110.2833,77.99,78,66,2.08,ID,1635185736
63,Beloha,-25.1667,45.05,74.01,85,56,15.41,MG,1635185737
64,Imbituba,-28.24,-48.6703,78.69,51,0,16.96,BR,1635185737
65,Marietta,33.9526,-84.5499,78.66,76,75,10.36,US,1635185737
66,Port Alfred,-33.5906,26.891,64.33,80,53,21.03,ZA,1635185737
67,Barcelona,41.3888,2.159,67.84,82,20,1.14,ES,1635185571
68,Pisco,-13.7,-76.2167,66.25,72,0,9.22,PE,1635185682
69,Sekondi,4.937,-1.7128,79.11,87,49,9.82,GH,1635185738
70,Kapuskasing,49.4169,-82.4331,39.29,93,75,4.61,CA,1635185738
71,Kenai,60.5544,-151.2583,39.15,98,90,3.44,US,1635185738
72,São Félix do Xingu,-6.6447,-51.995,89.04,54,96,2.06,BR,1635185738
73,Tuktoyaktuk,69.4541,-133.0374,28.4,100,90,5.75,CA,1635185738
74,La Ronge,55.1001,-105.2842,39.45,75,90,14.97,CA,1635185739
75,San Cristobal,7.7669,-72.225,80.78,46,65,3.98,VE,1635185739
76,Baykit,61.67,96.37,30.6,96,100,7.0,RU,1635185739
77,Bredasdorp,-34.5322,20.0403,61.29,83,56,12.73,ZA,1635185739
78,Hermanus,-34.4187,19.2345,61.81,76,70,15.77,ZA,1635185740
79,Bambous Virieux,-20.3428,57.7575,73.65,73,20,11.5,MU,1635185740
80,Quilalí,13.567,-86.026,84.61,68,49,3.85,NI,1635185740
81,Paraná,-31.732,-60.5238,92.46,26,0,10.0,AR,1635185741
82,Yellowknife,62.456,-114.3525,39.72,100,90,18.41,CA,1635185741
83,Albany,42.6001,-73.9662,61.65,91,100,4.54,US,1635185171
84,Rikitea,-23.1203,-134.9692,74.62,73,100,19.91,PF,1635185741
85,Tuy Hoa,13.0833,109.3,76.33,91,100,14.36,VN,1635185454
86,Jatibonico,21.9419,-79.17,86.65,65,86,2.71,CU,1635185741
87,Vila Velha,-20.3297,-40.2925,78.75,65,75,14.97,BR,1635185742
88,Arman',59.7,150.1667,22.15,73,51,3.94,RU,1635185451
89,Balkhash,46.844,74.9804,46.4,54,39,2.3,KZ,1635185742
90,Kartuzy,54.3342,18.1974,44.78,76,0,6.91,PL,1635185742
91,Vestmannaeyjar,63.4427,-20.2734,43.79,100,90,13.8,IS,1635185742
92,Torbay,47.6666,-52.7314,43.57,85,90,16.11,CA,1635185743
93,Thompson,55.7435,-97.8558,39.36,70,75,5.75,CA,1635185721
94,Airai,-8.9266,125.4092,61.2,91,61,0.31,TL,1635185743
95,Ilulissat,69.2167,-51.1,0.75,79,0,4.03,GL,1635185743
96,Mahon,39.8885,4.2658,64.96,77,20,6.91,ES,1635185743
97,Gawler,-34.6,138.7333,58.51,53,2,10.22,AU,1635185721
98,Westport,41.1415,-73.3579,75.09,74,1,1.99,US,1635185744
99,Saint-Philippe,-21.3585,55.7679,73.47,83,32,15.1,RE,1635185744
100,Gouré,13.9835,10.2704,90.01,14,28,8.08,NE,1635185744
101,Hachinohe,40.5,141.5,51.84,79,100,4.43,JP,1635185744
102,Golden,39.7555,-105.2211,78.39,31,75,1.01,US,1635185721
103,Hithadhoo,-0.6,73.0833,82.85,74,94,13.82,MV,1635185745
104,Hay River,60.8156,-115.7999,39.18,93,90,11.5,CA,1635185745
105,Laurel,39.0993,-76.8483,80.01,59,1,1.01,US,1635185553
106,Hilo,19.7297,-155.09,74.62,88,90,6.91,US,1635185745
107,Nikolskoye,59.7035,30.7861,47.88,83,100,11.72,RU,1635185745
108,Senneterre,48.3835,-77.2328,43.02,51,46,8.08,CA,1635185746
109,Mareeba,-17.0,145.4333,67.44,96,83,2.1,AU,1635185746
110,Upernavik,72.7868,-56.1549,14.83,63,19,5.84,GL,1635185746
111,East London,-33.0153,27.9116,65.34,72,0,14.97,ZA,1635185747
112,Isangel,-19.55,169.2667,69.91,88,37,4.61,VU,1635185747
113,Maniitsoq,65.4167,-52.9,28.36,45,0,8.37,GL,1635185542
114,Alofi,-19.0595,-169.9187,69.69,88,40,3.44,NU,1635185747
115,Porto Walter,-8.2686,-72.7439,83.66,59,100,6.42,BR,1635185747
116,Sur,22.5667,59.5289,81.66,64,0,5.3,OM,1635185747
117,Meulaboh,4.1363,96.1285,75.27,93,99,3.76,ID,1635185748
118,Opuwo,-18.0607,13.84,77.77,20,5,12.84,NA,1635185748
119,Lagoa,39.05,-27.9833,66.92,72,68,7.96,PT,1635185748
120,Malartic,48.1335,-78.1328,42.91,54,27,8.88,CA,1635185749
121,Darhan,49.4867,105.9228,34.93,74,7,7.9,MN,1635185749
122,Kukmor,56.1855,50.8944,28.06,78,7,7.52,RU,1635185749
123,Gainesville,29.6516,-82.3248,84.81,79,90,4.0,US,1635185488
124,Narsaq,60.9167,-46.05,30.42,44,17,1.59,GL,1635185749
125,Calama,-22.4667,-68.9333,73.89,7,0,23.02,CL,1635185749
126,Kumul,42.8,93.45,48.22,33,0,4.59,CN,1635185534
127,Kholtoson,50.2981,103.3097,30.38,64,52,4.43,RU,1635185750
128,Sitka,57.0531,-135.33,44.49,70,75,5.75,US,1635185618
129,Saldanha,-33.0117,17.9442,61.61,82,1,13.85,ZA,1635185750
130,Marystown,47.1666,-55.1483,47.86,100,97,14.83,CA,1635185750
131,Hamilton,39.1834,-84.5333,65.43,90,90,1.99,US,1635185463
132,Cherskiy,68.75,161.3,-16.4,98,97,2.01,RU,1635185750
133,Tiksi,71.6872,128.8694,2.7,95,100,4.45,RU,1635185688
134,Cascais,38.6979,-9.4215,66.47,70,20,10.0,PT,1635185751
135,Gorin,51.1983,136.6669,31.51,91,2,4.29,RU,1635185751
136,Rjukan,59.8789,8.5941,48.63,97,99,5.06,NO,1635185751
137,General Pico,-35.6566,-63.7568,93.31,8,15,16.64,AR,1635185503
138,Broken Hill,-31.95,141.4333,53.89,30,0,8.21,AU,1635185751
139,Okha,53.5739,142.9478,35.46,89,5,8.79,RU,1635185752
140,Mar del Plata,-38.0023,-57.5575,69.82,35,0,15.99,AR,1635185515
141,Dire Dawa,9.5931,41.8661,73.31,41,61,4.07,ET,1635185752
142,Batemans Bay,-35.7167,150.1833,51.1,75,7,3.44,AU,1635185752
143,Provideniya,64.3833,-173.3,15.6,85,70,7.38,RU,1635185538
144,Paka,4.6374,103.4368,78.73,89,92,3.44,MY,1635185752
145,Butaritari,3.0707,172.7902,81.57,73,6,5.84,KI,1635185753
146,Cabo San Lucas,22.8909,-109.9124,87.62,61,1,4.61,MX,1635185603
147,Banda Aceh,5.5577,95.3222,78.73,83,96,5.03,ID,1635185753
148,Ust-Kuyga,70.0167,135.6,-1.8,99,95,1.12,RU,1635185532
149,Ahipara,-35.1667,173.1667,56.25,90,2,1.97,NZ,1635185753
150,Coquimbo,-29.9533,-71.3436,62.33,72,40,18.41,CL,1635185473
151,Esperance,-33.8667,121.9,54.32,82,99,11.03,AU,1635185753
152,Saskylakh,71.9167,114.0833,-10.23,99,99,2.28,RU,1635185754
153,High Rock,26.6208,-78.2833,82.42,79,100,15.1,BS,1635185754
154,Bethel,41.3712,-73.414,72.91,80,20,6.91,US,1635185678
155,Laguna,38.421,-121.4238,63.01,74,1,4.0,US,1635185754
156,High Level,58.5169,-117.136,41.11,93,90,11.5,CA,1635185754
157,Barrow,71.2906,-156.7887,28.42,80,90,16.11,US,1635185755
158,Concarneau,47.875,-3.9225,57.06,84,13,7.67,FR,1635185755
159,Kavieng,-2.5744,150.7967,81.16,76,12,4.18,PG,1635185607
160,Pacific Grove,36.6177,-121.9166,62.69,88,75,1.01,US,1635185503
161,Novy Urengoy,66.0833,76.6333,19.92,93,52,8.32,RU,1635185755
162,Saint Anthony,45.0205,-93.218,52.66,51,1,1.99,US,1635185756
163,Nouadhibou,20.931,-17.0347,73.38,68,99,12.66,MR,1635185756
164,Pevek,69.7008,170.3133,-2.18,98,100,3.98,RU,1635185756
165,Nortelândia,-14.4547,-56.8028,84.34,57,100,2.57,BR,1635185756
166,Katsuura,35.1333,140.3,59.02,96,100,28.23,JP,1635185549
167,Colesberg,-30.72,25.0972,64.49,29,51,15.39,ZA,1635185757
168,Hīrna,9.2167,41.1,68.04,35,80,2.24,ET,1635185757
169,Biak,-0.9131,122.8766,76.86,87,78,1.3,ID,1635185757
170,Yar-Sale,66.8333,70.8333,20.43,88,97,6.87,RU,1635185758
171,Zonguldak,41.25,31.8333,40.28,88,5,2.53,TR,1635185758
172,Kitakata,37.65,139.8667,51.57,98,100,4.47,JP,1635185758
173,Humberto de Campos,-2.5983,-43.4611,90.43,50,6,14.16,BR,1635185758
174,Poronaysk,49.2167,143.1167,41.38,82,2,8.03,RU,1635185758
175,New Norfolk,-42.7826,147.0587,49.5,70,40,1.01,AU,1635185759
176,Caravelas,-17.7125,-39.2481,74.91,94,100,9.04,BR,1635185759
177,Dauphin,51.1494,-100.0502,46.54,61,1,16.11,CA,1635185759
178,Kieta,-6.2167,155.6333,77.88,83,37,2.51,PG,1635185760
179,Omboué,-1.5746,9.2618,77.43,87,100,9.62,GA,1635185760
180,Port Lincoln,-34.7333,135.8667,57.74,79,9,12.97,AU,1635185760
181,‘Āhuimanu,21.4447,-157.8378,80.31,69,90,11.5,US,1635185760
182,Severo-Yeniseyskiy,60.3725,93.0408,32.95,97,100,12.8,RU,1635185761
183,Wagar,16.1525,36.2032,94.01,20,31,8.23,SD,1635185761
184,Annoeullin,50.5293,2.9318,54.28,87,75,1.01,FR,1635185762
185,Ponta do Sol,32.6667,-17.1,72.72,70,78,4.99,PT,1635185763
186,Belfast,54.5833,-5.9333,49.82,77,20,11.5,GB,1635185466
187,Wembley,-31.9333,115.8,51.06,93,40,5.75,AU,1635185763
188,Xining,36.6167,101.7667,35.31,91,100,2.55,CN,1635185691
189,Dukat,62.55,155.55,7.32,96,100,3.27,RU,1635185763
190,Utica,43.1009,-75.2327,68.63,91,93,1.99,US,1635185764
191,Palauig,15.435,119.9045,78.87,79,100,4.72,PH,1635185764
192,Margate,51.3813,1.3862,55.69,89,24,3.0,GB,1635185764
193,Ribeira Grande,38.5167,-28.7,70.2,73,75,12.66,PT,1635185765
194,Dwārka,22.2394,68.9678,79.07,47,2,6.89,IN,1635185765
195,Mehamn,71.0357,27.8492,32.18,90,44,26.75,NO,1635185765
196,Guerrero Negro,27.9769,-114.0611,70.05,65,27,13.47,MX,1635185614
197,Lebu,-37.6167,-73.65,57.43,73,26,12.62,CL,1635185763
198,Saint George,37.1041,-113.5841,77.47,26,40,5.01,US,1635185721
199,Makokou,0.5738,12.8642,71.74,96,82,2.57,GA,1635185765
200,Mayo,38.8876,-76.5119,80.22,65,89,8.01,US,1635185766
201,Effingham County,32.3669,-81.3332,80.89,90,81,5.01,US,1635185766
202,Sidhaulī,27.2833,80.8333,75.09,66,0,5.86,IN,1635185766
203,Nema,57.5067,50.5011,27.68,80,6,7.74,RU,1635185767
204,Kaitangata,-46.2817,169.8464,51.51,87,98,6.11,NZ,1635185767
205,Aloleng,16.1307,119.7824,78.89,78,99,7.92,PH,1635185767
206,Kangly,44.2544,43.0308,35.65,87,72,8.95,RU,1635185767
207,Leh,34.1667,77.5833,29.89,65,85,1.03,IN,1635185768
208,Hurghada,27.2574,33.8129,73.71,59,0,12.39,EG,1635185608
209,Pasni,25.2631,63.471,78.03,58,0,2.93,PK,1635185768
210,Torgau,51.5667,13.0,50.95,71,100,6.26,DE,1635185768
211,Chokurdakh,70.6333,147.9167,-20.49,100,95,0.29,RU,1635185768
212,Udachny,66.4167,112.4,7.7,97,68,3.74,RU,1635185769
213,Sampit,-2.5333,112.95,74.41,92,94,1.1,ID,1635185769
214,Atar,20.5169,-13.0499,96.85,19,78,13.8,MR,1635185769
215,Itarema,-2.9248,-39.9167,86.43,56,24,19.8,BR,1635185616
216,Oranjemund,-28.55,16.4333,61.7,73,42,11.21,NA,1635185770
217,Filingué,14.3521,3.3168,95.79,10,45,3.44,NE,1635185770
218,Vao,-22.6667,167.4833,70.52,70,0,13.82,NC,1635185549
219,Esik,43.3552,77.4525,35.02,49,0,5.32,KZ,1635185770
220,Durusu,41.3053,28.6767,56.84,73,77,21.0,TR,1635185771
221,Vila,42.0304,-8.1588,53.92,81,47,2.84,PT,1635185771
222,Muroto-misakicho,33.2833,134.15,61.93,72,0,7.02,JP,1635185771
223,Illapel,-31.6308,-71.1653,80.33,32,24,9.91,CL,1635185771
224,Nahavand,34.1885,48.377,51.37,24,0,3.94,IR,1635185772
225,Ondjiva,-17.0667,15.7333,82.0,17,59,8.23,AO,1635185477
226,Solnechnyy,50.7214,136.6319,34.95,77,66,3.91,RU,1635185772
227,Tual,-5.6667,132.75,82.89,72,72,3.44,ID,1635185772
228,Chara,56.9064,118.2631,27.63,74,80,3.42,RU,1635185773
229,Kruisfontein,-34.0033,24.7314,60.89,83,1,12.41,ZA,1635185773
230,Mattru,7.6244,-11.8332,75.15,96,94,2.84,SL,1635185773
231,Kautokeino,69.0125,23.0412,20.88,97,100,5.53,NO,1635185773
232,Piaçabuçu,-10.4056,-36.4344,83.44,58,4,12.75,BR,1635185773
233,Shache,38.4167,77.2406,49.53,33,94,3.44,CN,1635185769
234,Honningsvåg,70.9821,25.9704,31.75,74,20,10.36,NO,1635185774
235,Diré,12.2833,-10.9667,83.12,72,58,0.51,ML,1635185774
236,Haines Junction,60.7522,-137.5108,13.95,92,100,0.0,CA,1635185774
237,Dongli,23.5656,116.8194,69.78,88,0,0.0,CN,1635185774
238,Kefamenanu,-9.4467,124.4781,72.95,90,59,2.55,ID,1635185775
239,Casselman,45.3168,-75.0826,45.43,81,100,14.97,CA,1635185775
240,Tinqueux,49.25,3.9833,52.18,93,90,3.44,FR,1635185775
241,Caracas,10.488,-66.8792,73.89,90,87,1.36,VE,1635185591
242,Bilma,18.6853,12.9164,88.0,13,2,6.55,NE,1635185560
243,Port Hedland,-20.3167,118.5667,75.25,83,0,12.66,AU,1635185717
244,Dikson,73.5069,80.5464,12.92,87,100,19.13,RU,1635185775
245,Labuhan,-6.8844,112.2051,79.66,77,43,7.14,ID,1635185776
246,Olafsvik,64.8945,-23.7142,35.53,68,87,11.86,IS,1635185776
247,Iwaki,37.05,140.8833,59.23,96,100,14.2,JP,1635185776
248,Det Udom,14.906,105.0784,71.42,90,54,5.46,TH,1635185776
249,Trondheim,63.4305,10.3951,53.01,89,100,3.65,NO,1635185777
250,Manta,-0.95,-80.7333,78.58,78,90,8.05,EC,1635185777
251,Clyde River,70.4692,-68.5914,23.23,68,90,4.61,CA,1635185777
252,Nianzishan,47.5167,122.8833,41.52,55,26,6.73,CN,1635185777
253,Barguzin,53.6167,109.6167,30.72,89,37,3.49,RU,1635185778
254,Arraial do Cabo,-22.9661,-42.0278,71.56,73,75,8.05,BR,1635185778
255,Henties Bay,-22.116,14.2845,59.86,87,0,4.88,NA,1635185778
256,Asău,46.4333,26.4,40.75,68,0,1.7,RO,1635185778
257,Waingapu,-9.6567,120.2641,80.1,80,72,3.13,ID,1635185779
258,Ayagoz,47.9714,80.4392,39.65,46,23,2.91,KZ,1635185779
259,Fairbanks,64.8378,-147.7164,28.36,91,90,0.0,US,1635185616
260,Mogadishu,2.0371,45.3438,79.56,79,67,11.25,SO,1635185779
261,Namatanai,-3.6667,152.4333,78.57,81,21,4.23,PG,1635185779
262,Forsytheganj,52.6333,29.7333,35.26,69,15,7.4,BY,1635185780
263,Hofn,64.2539,-15.2082,33.82,86,20,6.91,IS,1635185780
264,Nador,35.174,-2.9287,68.07,68,20,6.91,MA,1635185780
265,Schiffdorf,53.5333,8.65,53.53,88,97,10.47,DE,1635185780
266,Porto Velho,-8.7619,-63.9039,80.65,74,75,2.3,BR,1635185715
267,Lompoc,34.6391,-120.4579,59.77,89,90,8.05,US,1635185781
268,Sabang,5.8933,95.3214,81.41,77,89,6.29,ID,1635185781
269,São Filipe,14.8961,-24.4956,78.55,73,70,12.71,CV,1635185781
270,Vicuña,-30.0319,-70.7081,89.76,24,0,9.75,CL,1635185715
271,Den Helder,52.9599,4.7593,55.98,92,90,14.0,NL,1635185781
272,Andenes,69.3143,16.1194,37.38,87,75,5.75,NO,1635185782
273,Bārsi,18.2333,75.7,75.09,54,79,10.4,IN,1635185782
274,Conakry,9.538,-13.6773,84.27,74,40,9.22,GN,1635185782
275,Basco,20.4487,121.9702,79.68,78,59,21.0,PH,1635185782
276,Carnarvon,-24.8667,113.6333,62.67,63,75,10.36,AU,1635185586
277,Petukhovo,55.0692,67.9019,39.25,94,100,6.49,RU,1635185783
278,Saint Paul Harbor,57.79,-152.4072,40.51,81,90,6.91,US,1635185783
279,Yaan,7.3833,8.5667,81.14,73,85,6.82,NG,1635185783
280,Noyabrsk,63.1994,75.4507,24.6,84,94,8.23,RU,1635185783
281,Norman Wells,65.282,-126.8329,23.04,93,90,0.0,CA,1635185784
282,Cidreira,-30.1811,-50.2056,75.38,48,0,4.56,BR,1635185784
283,Urengoy,65.9667,78.3667,18.32,92,88,7.65,RU,1635185784
284,Faanui,-16.4833,-151.75,78.8,76,98,5.77,PF,1635185784
285,Cache Creek,50.8101,-121.3246,52.25,81,100,7.29,CA,1635185721
286,Teya,60.3778,92.6267,34.27,95,100,11.05,RU,1635185785
287,Torit,4.4133,32.5678,82.04,47,75,3.6,SS,1635185785
288,Zhezkazgan,47.8043,67.7144,48.22,39,100,7.36,KZ,1635185785
289,Teknāf,20.8624,92.3058,76.33,86,96,2.89,BD,1635185719
290,Alcamo,37.9983,12.9565,66.83,85,55,1.81,IT,1635185785
291,Ostrovnoy,68.0531,39.5131,20.41,90,16,7.49,RU,1635185786
292,Ugoofaaru,5.6667,73.0,81.59,78,61,9.37,MV,1635185516
293,Emerald,-23.5333,148.1667,66.97,74,100,6.93,AU,1635185786
294,Harper,4.375,-7.7169,78.82,78,91,9.55,LR,1635185786
295,Tabas,33.5959,56.9244,64.53,23,0,3.83,IR,1635185627
296,Kėdainiai,55.2883,23.9747,43.27,66,79,13.33,LT,1635185786
297,Castro,-24.7911,-50.0119,69.03,65,89,3.18,BR,1635185787
298,College,64.8569,-147.8028,27.59,92,90,4.61,US,1635185787
299,Nsoko,-27.0333,31.95,61.79,89,100,4.34,SZ,1635185787
300,Faya,18.3851,42.4509,64.51,72,22,3.71,SA,1635185787
301,Hambantota,6.1241,81.1185,78.01,87,100,14.05,LK,1635185684
302,Anadyr,64.75,177.4833,-12.26,96,81,9.19,RU,1635185788
303,Samarai,-10.6167,150.6667,80.89,80,79,8.81,PG,1635185788
304,General Roca,-39.0333,-67.5833,85.62,22,98,33.13,AR,1635185788
305,Muyezerskiy,63.9333,31.65,34.25,100,100,3.85,RU,1635185789
306,Souillac,-20.5167,57.5167,73.78,73,20,11.5,MU,1635185789
307,Geraldton,-28.7667,114.6,54.01,87,40,5.75,AU,1635185789
308,San Luis,-33.295,-66.3356,92.28,10,0,7.7,AR,1635185677
309,Carutapera,-1.195,-46.02,87.46,62,62,12.57,BR,1635185789
310,Kilindoni,-7.9139,39.6668,79.48,80,12,11.7,TZ,1635185790
311,Mount Isa,-20.7333,139.5,74.97,53,90,0.0,AU,1635185790
312,Muli,2.9167,73.5667,82.62,76,85,16.06,MV,1635185790
313,Tazmalt,36.3868,4.3989,63.3,74,69,3.42,DZ,1635185791
314,Sfântu Gheorghe,45.8667,25.7833,40.93,68,0,4.61,RO,1635185791
315,Belawan,3.7755,98.6832,77.29,90,100,5.35,ID,1635185791
316,Grand-Lahou,5.1367,-5.0242,78.94,84,96,11.72,CI,1635185791
317,Bengkulu,-3.8004,102.2655,74.82,91,100,3.78,ID,1635185792
318,Santo Tomas,14.1079,121.1414,75.58,93,90,4.92,PH,1635185792
319,Kutum,14.2,24.6667,79.54,18,82,12.46,SD,1635185792
320,Morozovsk,48.3539,41.8261,30.61,52,3,6.33,RU,1635185793
321,Jizan,17.3333,42.6667,88.74,60,50,4.5,SA,1635185793
322,Kapoeta,4.7717,33.5903,89.56,30,84,19.01,SS,1635185793
323,Grand Gaube,-20.0064,57.6608,73.38,70,27,5.99,MU,1635185527
324,Kloulklubed,7.0419,134.2556,75.7,62,84,8.05,PW,1635185793
325,Mzimba,-11.9,33.6,72.23,43,30,9.95,MW,1635185794
326,Ribeira Brava,32.65,-17.0667,72.72,73,77,5.08,PT,1635185794
327,Fuling,29.7022,107.3919,61.66,84,100,0.83,CN,1635185794
328,Gravdal,68.1214,13.5031,40.68,97,100,5.57,NO,1635185794
329,Nuevo Progreso,23.1667,-97.95,88.9,66,100,6.17,MX,1635185795
330,Balaipungut,1.05,101.2833,77.41,98,96,1.52,ID,1635185795
331,Kuytun,54.3419,101.5036,39.02,65,98,7.58,RU,1635185795
332,Chapais,49.7834,-74.8492,38.98,61,82,5.57,CA,1635185795
333,Sistranda,63.7256,8.834,52.9,83,99,10.29,NO,1635185796
334,Hunterville,-39.9333,175.5667,58.24,95,83,3.13,NZ,1635185796
335,Mendoza,-32.8908,-68.8272,98.13,20,0,5.75,AR,1635185796
336,Mukhen,48.1,136.1,39.94,72,30,5.91,RU,1635185534
337,Sovetskiy,61.3614,63.5842,26.85,81,94,6.78,RU,1635185796
338,Moses Lake,47.1301,-119.2781,55.29,58,1,13.8,US,1635185698
339,Juneau,58.3019,-134.4197,42.84,87,90,0.0,US,1635185531
340,Zhangaözen,43.3,52.8,51.98,53,100,21.43,KZ,1635185797
341,Ust-Nera,64.5667,143.2,5.81,99,100,2.8,RU,1635185797
342,Fortuna,40.5982,-124.1573,57.97,68,40,1.01,US,1635185524
343,Grindavik,63.8424,-22.4338,39.67,81,90,5.75,IS,1635185797
344,Itaituba,-4.2761,-55.9836,95.16,59,20,9.22,BR,1635185797
345,Yangi Marg`ilon,40.4272,71.7189,49.42,46,0,9.22,UZ,1635185798
346,Marabu,4.4148,114.0089,77.14,94,40,2.3,MY,1635185798
347,Moranbah,-22.0016,148.0466,68.16,79,86,14.23,AU,1635185798
348,Yabrūd,33.9674,36.6574,51.46,51,25,0.29,SY,1635185798
349,Lamu,-2.2717,40.902,79.02,84,88,7.65,KE,1635185799
350,Puerto Escondido,15.85,-97.0667,88.63,58,20,6.91,MX,1635185799
351,Yankton,42.8711,-97.3973,52.12,66,1,10.36,US,1635185660
352,Don Luan,11.5333,106.9167,72.36,91,98,4.74,VN,1635185799
353,Gacko,43.1672,18.5353,39.33,64,0,3.76,BA,1635185799
354,Sarangani,5.4033,125.4636,83.25,69,31,1.66,PH,1635185800
355,Laas,46.6166,10.7002,47.28,50,100,1.88,IT,1635185800
356,Camabatela,-8.1881,15.375,63.3,98,100,2.42,AO,1635185800
357,Tacuarembó,-31.7333,-55.9833,79.25,48,0,14.29,UY,1635185800
358,Maceió,-9.6658,-35.7353,89.04,58,20,17.27,BR,1635185618
359,Ubari,26.5921,12.7805,78.22,25,2,9.06,LY,1635185801
360,Luangwa,-15.6167,30.4167,87.21,31,19,6.76,ZM,1635185801
361,Batagay,67.6333,134.6333,-2.13,99,75,1.95,RU,1635185537
362,Mangochi,-14.4782,35.2645,90.21,30,90,4.47,MW,1635185801
363,Adrar,20.5022,-10.0711,91.98,17,18,6.44,MR,1635185801
364,Ekibastuz,51.6667,75.3667,49.33,47,97,8.59,KZ,1635185802
365,Myaundzha,63.0494,147.1858,-7.15,99,61,2.39,RU,1635185802
366,Entre Rios,-11.9419,-38.0844,88.81,43,79,11.43,BR,1635185802
367,Pereira Barreto,-20.6383,-51.1092,79.97,58,83,3.04,BR,1635185802
368,Saratovskaya,44.7103,39.2244,42.62,82,65,5.46,RU,1635185803
369,San Quintín,30.4833,-115.95,67.33,68,73,10.94,MX,1635185803
370,Aklavik,68.2191,-135.0107,23.72,95,100,3.65,CA,1635185803
371,Dunda,-8.1167,34.25,79.97,32,78,9.62,TZ,1635185804
372,Saurimo,-9.6608,20.3916,66.88,90,83,2.71,AO,1635185804
373,Sinnamary,5.3833,-52.95,79.14,89,67,10.87,GF,1635185693
374,Tuatapere,-46.1333,167.6833,51.71,97,74,1.39,NZ,1635185804
375,Takoradze,4.8845,-1.7554,79.3,86,49,10.85,GH,1635185804
376,Dali,25.7,100.1833,53.08,90,1,4.92,CN,1635185805
377,Dryden,49.7833,-92.7503,37.69,81,90,8.05,CA,1635185805
378,Puro,12.4841,123.3827,78.89,86,100,10.31,PH,1635185805
379,Naica,27.85,-105.4833,81.46,20,0,9.33,MX,1635185805
380,Belgrade,44.804,20.4651,51.46,60,0,4.0,RS,1635185719
381,Adré,13.4667,22.2,84.43,22,28,8.1,TD,1635185806
382,Kaduqli,11.0167,29.7167,86.09,39,69,2.73,SD,1635185806
383,Abéché,13.8292,20.8324,90.57,21,31,3.44,TD,1635185806
384,San Vicente de Cañete,-13.0751,-76.3835,69.17,68,32,8.79,PE,1635185806
385,Atambua,-9.1061,124.8925,75.54,84,65,1.92,ID,1635185806
386,Poopó,-18.3667,-66.9667,63.37,6,0,8.5,BO,1635185807
387,Stepnyak,52.8339,70.7803,47.57,55,100,12.95,KZ,1635185807
388,Şabyā,17.1495,42.6254,89.22,59,47,3.6,SA,1635185807
389,Ha Tinh,18.3333,105.9,68.63,84,14,3.31,VN,1635185807
390,Champerico,14.3,-91.9167,93.74,74,9,4.63,GT,1635185808
391,Churāchāndpur,24.3333,93.6667,61.77,95,52,0.74,IN,1635185808
392,Ossora,59.2353,163.0719,27.07,82,100,9.62,RU,1635185808
393,Karratha,-20.7377,116.8463,77.43,40,6,13.02,AU,1635185808
394,Jacareacanga,-6.2222,-57.7528,79.11,94,40,2.3,BR,1635185809
395,Biltine,14.5333,20.9167,90.23,17,5,8.12,TD,1635185809
396,Elkhart,41.5823,-85.8344,49.14,87,90,14.97,US,1635185537
397,Mosquera,4.7059,-74.2302,66.29,63,75,10.36,CO,1635185809
398,Moussoro,13.6408,16.4901,94.62,14,14,12.44,TD,1635185810
399,Ancud,-41.8697,-73.8203,56.43,86,100,12.1,CL,1635185802
400,Ixtapa,20.7,-105.2,85.23,62,75,0.0,MX,1635185810
401,Grieskirchen,48.2333,13.8333,47.91,87,100,1.41,AT,1635185810
402,Pontiac,42.6389,-83.2911,49.84,95,90,5.01,US,1635185810
403,Buluang,13.3068,123.3425,75.07,93,78,3.38,PH,1635185811
404,Joshīmath,30.5667,79.5667,51.31,45,10,5.99,IN,1635185811
405,Hammerfest,70.6634,23.6821,33.53,80,0,16.11,NO,1635185811
406,Annonay,45.2397,4.6708,55.81,80,13,3.09,FR,1635185811
407,Antofagasta,-23.65,-70.4,63.68,61,6,6.69,CL,1635185812
408,Aksarka,66.5606,67.7975,16.88,94,98,4.05,RU,1635185812
409,Vredendal,-31.6683,18.5012,72.36,35,0,16.35,ZA,1635185812
410,Maningrida,-12.0667,134.2667,79.66,81,98,5.08,AU,1635185812
411,Non Sang,16.8687,102.5664,73.51,83,29,2.82,TH,1635185813
412,Newport,51.5877,-2.9984,55.63,86,53,8.48,GB,1635185691
413,Tilichiki,60.4667,166.1,21.6,97,100,5.73,RU,1635185813
414,Chengzihe,45.3333,131.0667,40.41,61,7,3.74,CN,1635185813
415,Palāsa,18.7667,84.4167,73.31,74,4,4.18,IN,1635185813
416,Dhekiajuli,26.7,92.5,69.1,85,1,2.86,IN,1635185814
417,Rawson,-43.3002,-65.1023,66.79,25,37,16.35,AR,1635185571
418,Namanga,-2.5433,36.7905,74.82,49,72,14.63,KE,1635185814
419,Jalu,29.0331,21.5482,81.27,25,56,13.6,LY,1635185814
420,Okhotsk,59.3833,143.3,21.15,78,97,6.33,RU,1635185815
421,Salalah,17.0151,54.0924,78.89,73,0,4.61,OM,1635185815
422,Barreirinhas,-2.7469,-42.8264,90.48,48,4,14.12,BR,1635185815
423,Itoman,26.1247,127.6694,71.62,73,20,11.5,JP,1635185815
424,Kahului,20.8947,-156.47,78.84,77,20,11.5,US,1635185816
425,Saint-François,46.4154,3.9054,54.68,84,89,0.0,FR,1635185816
426,Khatanga,71.9667,102.5,6.21,96,100,9.04,RU,1635185816
427,Balingasay,16.3573,119.8564,80.26,77,100,11.43,PH,1635185817
428,Langxiang,46.95,128.8833,39.02,93,75,3.62,CN,1635185817
429,Tonneins,44.3921,0.3124,60.82,85,100,1.63,FR,1635185817
430,Praia da Vitória,38.7333,-27.0667,70.75,83,20,8.39,PT,1635185817
431,Departamento de Maldonado,-34.6667,-54.9167,76.39,48,0,16.69,UY,1635185818
432,Arrondissement de Bastia,42.6667,9.3333,62.29,51,0,6.91,FR,1635185818
433,San Javier,37.8063,-0.8374,68.23,72,0,5.75,ES,1635185818
434,Mahébourg,-20.4081,57.7,73.69,73,20,11.5,MU,1635185819
435,Waitati,-45.75,170.5667,55.8,95,100,3.83,NZ,1635185819
436,Puerto Nariño,-3.7703,-70.3831,78.75,95,100,4.45,CO,1635185819
437,Kiunga,-6.1219,141.2906,72.81,99,100,0.92,PG,1635185534
438,Oktyabr'skoye,43.0645,44.7417,35.74,100,100,6.71,RU,1635185819
439,Zhicheng,30.2956,111.5047,60.71,66,58,2.93,CN,1635185820
440,Saint-Pierre,-21.3393,55.4781,73.56,79,0,6.91,RE,1635185820
441,Liku,-0.7275,119.8922,75.34,92,40,2.71,ID,1635185821
442,Amga,60.8953,131.9608,28.78,99,99,2.55,RU,1635185821
443,Cleethorpes,53.5605,-0.0323,52.56,76,43,6.91,GB,1635185822
444,Siderno,38.2779,16.302,65.77,87,100,4.94,IT,1635185822
445,Whittlesea,-32.1759,26.8244,53.94,86,72,11.36,ZA,1635185823
446,Starogard Gdański,53.964,18.5264,45.07,100,70,7.94,PL,1635185823
447,Ponta Delgada,37.7333,-25.6667,70.52,73,20,6.91,PT,1635185823
448,Belmonte,-15.8631,-38.8828,84.2,75,91,9.19,BR,1635185824
449,San Angelo,31.4638,-100.437,89.64,50,1,1.01,US,1635185767
450,Lianzhou,24.7811,112.3825,58.86,87,27,1.66,CN,1635185824
451,Butka,56.7179,63.7866,37.26,84,100,6.82,RU,1635185824
452,Semey,50.4111,80.2275,44.4,47,61,8.79,KZ,1635185824
453,Nové Město pod Smrkem,50.9249,15.2294,45.99,60,100,6.38,CZ,1635185825
454,Mazatlán,23.2167,-106.4167,89.56,70,20,1.01,MX,1635185777
455,Pochutla,15.7432,-96.4661,89.82,59,62,6.38,MX,1635185825
456,Macheng,31.1783,115.0319,56.7,74,1,2.44,CN,1635185825
457,Bukachacha,52.9833,116.9167,30.04,83,19,3.13,RU,1635185825
458,Tezu,27.9167,96.1667,68.79,72,3,4.16,IN,1635185826
459,Erzin,36.9559,36.2,68.72,55,87,1.39,TR,1635185826
460,The Valley,18.217,-63.0578,87.66,66,20,16.11,AI,1635185826
461,Morant Bay,17.8815,-76.4093,86.67,63,79,10.65,JM,1635185826
462,Lata,40.1629,-8.3327,60.93,78,55,3.04,PT,1635185612
463,Yuanping,38.7153,112.7575,50.0,52,68,3.13,CN,1635185827
464,Morehead,37.2711,-87.1764,57.15,72,90,4.0,US,1635185827
465,Viking,53.1001,-111.7684,45.63,55,100,21.39,CA,1635185827
466,Severomuysk,56.1481,113.4267,19.09,94,77,3.74,RU,1635185533
467,Klaksvík,62.2266,-6.589,43.72,80,94,12.97,FO,1635185827
468,Penzance,50.1186,-5.5371,54.61,80,55,16.08,GB,1635185828
469,Stokmarknes,68.5646,14.9108,42.49,93,90,8.05,NO,1635185828
470,Kuril'sk,45.2333,147.8833,48.56,87,17,8.12,RU,1635185828
471,Vizinga,61.0749,50.1031,28.11,75,63,6.67,RU,1635185828
472,Clyde,41.3042,-82.9752,66.51,95,100,6.49,US,1635185829
473,Mariehamn,60.0973,19.9348,46.26,76,20,6.91,AX,1635185829
474,Laje,-10.1833,-40.9667,91.74,33,55,11.14,BR,1635185829
475,Ulaanbaatar,47.9077,106.8832,15.93,86,0,4.47,MN,1635185710
476,Palana,59.1167,159.9667,29.14,97,100,24.18,RU,1635185829
477,Nome,64.5011,-165.4064,24.87,80,40,11.5,US,1635185830
478,Kaiyuan,23.6977,103.3037,57.38,97,67,4.41,CN,1635185830
479,Linguère,15.3953,-15.1193,97.95,27,98,3.38,SN,1635185830
480,Nichinan,31.6,131.3667,56.89,87,1,3.27,JP,1635185830
481,Sri Aman,1.2376,111.4621,77.05,94,94,0.0,MY,1635185831
482,Nebolchi,59.1239,33.3454,39.65,87,100,11.1,RU,1635185831
483,Nadvoitsy,63.8667,34.3167,33.53,98,100,4.97,RU,1635185831
484,Mackenzie,55.2999,-123.1698,41.22,87,75,3.44,CA,1635185831
485,Hualmay,-11.0964,-77.6139,67.91,70,38,11.83,PE,1635185783
486,Norsup,-16.0667,167.3833,77.34,84,5,7.16,VU,1635185832
487,Tura,25.5198,90.2201,66.87,94,0,2.73,IN,1635185832
488,Mount Gambier,-37.8333,140.7667,38.16,93,21,6.15,AU,1635185832
489,Morwell,-38.2333,146.4,43.92,91,5,1.12,AU,1635185832
490,Warmbad,-28.45,18.7333,75.96,16,3,9.98,NA,1635185833
491,Makkah al Mukarramah,21.4267,39.8261,82.38,56,3,2.39,SA,1635185833
492,Tuyen Quang,21.8233,105.2181,66.42,86,14,1.72,VN,1635185833
493,Illela,13.7292,5.2975,92.57,12,73,7.49,NG,1635185833
494,Korem,12.5058,39.5228,57.42,54,34,3.13,ET,1635185834
495,Sakakah,29.9697,40.2064,76.57,22,0,9.01,SA,1635185736
496,Río Gallegos,-51.6226,-69.2181,51.85,22,75,34.52,AR,1635185834
497,Cotonou,6.3654,2.4183,80.58,89,40,12.66,BJ,1635185834
498,Shar,49.5886,81.0453,41.9,49,25,7.25,KZ,1635185835
499,Paamiut,61.994,-49.6678,37.11,54,26,14.58,GL,1635185835
500,Dawlatabad,36.4141,64.9053,64.18,20,100,3.8,AF,1635185835
501,Homer,59.6425,-151.5483,35.08,93,40,5.75,US,1635185629
502,Sirsilla,18.3833,78.8333,70.39,72,3,3.8,IN,1635185835
503,Nhulunbuy,-12.2333,136.7667,81.21,78,98,4.61,AU,1635185836
504,Yerbogachën,61.2767,108.0108,29.79,95,94,5.97,RU,1635185836
505,Turukhansk,65.8167,87.9833,15.12,97,99,7.09,RU,1635185836
506,Petropavlovsk-Kamchatskiy,53.0452,158.6483,29.93,78,23,13.94,RU,1635185702
507,Lubumbashi,-11.6609,27.4794,76.46,52,83,8.77,CD,1635185836
508,Chabahar,25.2919,60.643,79.23,81,4,10.36,IR,1635185837
509,Capaci,38.1711,13.2393,68.13,89,40,5.75,IT,1635185837
510,Ngunguru,-35.6167,174.5,59.16,87,100,4.03,NZ,1635185837
511,Nurota,40.5614,65.6886,50.09,28,54,7.07,UZ,1635185837
512,Japura,-0.3167,102.35,75.69,95,100,1.74,ID,1635185837
513,Nishihara,26.1842,127.7558,70.88,76,20,6.91,JP,1635185838
514,Vila Franca do Campo,37.7167,-25.4333,70.21,71,81,2.91,PT,1635185838
515,Jiangmen,22.5833,113.0833,68.99,80,25,3.0,CN,1635185838
516,Bahía Blanca,-38.7196,-62.2724,81.55,18,9,17.78,AR,1635185838
517,Batagay-Alyta,67.8006,130.4114,4.96,89,100,2.91,RU,1635185839
518,Vung Tau,10.346,107.0843,80.65,78,99,3.47,VN,1635185839
519,Maraã,-1.8333,-65.3667,86.45,63,91,2.3,BR,1635185839
520,Anloga,5.7947,0.8973,81.59,81,53,12.68,GH,1635185840
521,Gallup,35.5281,-108.7426,68.76,29,1,4.0,US,1635185840
522,Shuya,56.8487,41.3883,33.37,67,96,12.17,RU,1635185840
523,Sisimiut,66.9395,-53.6735,18.63,72,4,11.34,GL,1635185840
524,San Policarpo,12.1791,125.5072,80.26,83,72,8.28,PH,1635185585
525,Pangnirtung,66.1451,-65.7125,24.62,65,88,0.78,CA,1635185609
526,Talnakh,69.4865,88.3972,18.97,96,100,7.72,RU,1635185841
527,Shelburne,44.0787,-80.2041,42.91,99,100,14.76,CA,1635185721
528,Kushmurun,52.4503,64.6311,48.83,58,100,10.11,KZ,1635185841
529,Sawtell,-30.3833,153.1,64.42,89,75,10.36,AU,1635185841
530,Lewistown,40.5992,-77.5714,74.79,60,46,4.63,US,1635185841
531,Suba,10.8438,121.0102,82.63,79,65,8.25,PH,1635185842
532,Ust'ye,59.6304,39.736,35.55,97,100,13.65,RU,1635185842
533,Qingdao,36.0986,120.3719,51.4,87,62,2.24,CN,1635185842
534,Miahuatlán,18.5667,-97.4333,73.22,49,95,6.11,MX,1635185842
535,Poum,-20.2333,164.0167,74.07,72,9,15.7,NC,1635185604
536,Qui Nhon,13.7667,109.2333,76.71,89,100,17.94,VN,1635185651
537,Constantine,36.365,6.6147,60.21,88,75,9.22,DZ,1635185815
538,Jarocin,51.9727,17.5026,46.42,51,69,8.55,PL,1635185843
539,Amuntai,-2.4177,115.2494,74.59,97,92,1.23,ID,1635185843
540,Wahiawā,21.5028,-158.0236,77.32,73,90,4.61,US,1635185843
541,Agüimes,27.9054,-15.4461,70.43,64,40,12.66,ES,1635185843
542,Mīrābād,30.4362,61.8383,70.23,13,1,7.0,AF,1635185844
543,Angoche,-16.2325,39.9086,79.07,86,3,10.51,MZ,1635185844
544,Calbuco,-41.768,-73.1273,58.21,74,100,8.55,CL,1635185797
545,Naze,28.3667,129.4833,66.79,66,30,12.59,JP,1635185844
546,Yulara,-25.2406,130.9889,73.24,31,54,4.61,AU,1635185844
547,Dakoro,14.5106,6.765,92.66,13,24,7.38,NE,1635185845
548,Turaif,31.6725,38.6637,68.25,30,0,6.91,SA,1635185845
549,Koungheul,13.9833,-14.8,85.53,60,97,7.78,SN,1635185845
550,Kashgar,39.4547,75.9797,45.61,42,100,6.71,CN,1635185845
551,Half Moon Bay,37.4636,-122.4286,63.03,77,1,9.22,US,1635185625
552,Mayen,50.3333,7.2167,53.67,84,92,4.54,DE,1635185846
553,Auki,-8.7676,160.7034,76.5,88,72,4.12,SB,1635185687
554,Port Hardy,50.6996,-127.4199,53.6,76,75,27.63,CA,1635185846
555,Bilibino,68.0546,166.4372,-18.9,95,83,3.18,RU,1635185846
556,Kupang,-10.1667,123.5833,79.48,79,76,3.53,ID,1635185846
557,Kendari,-3.945,122.4989,75.92,92,56,0.74,ID,1635185847
558,Bella Vista,36.4295,-94.2316,61.99,73,40,1.99,US,1635185847
559,Independence,39.0911,-94.4155,51.44,81,90,5.75,US,1635185847
560,Matamoros,25.5333,-103.25,84.31,23,1,6.91,MX,1635185847
561,Tigil',57.8,158.6667,31.98,96,100,21.77,RU,1635185848
562,Pánuco,22.05,-98.1667,87.98,66,100,1.97,MX,1635185848
563,Marsabit,2.3284,37.9899,69.44,67,99,9.95,KE,1635185848
