,City,Lat,Lng,Max Temp,Humidity,Cloudiness,Wind Speed,Country,Date
0,Tasiilaq,65.6145,-37.6368,33.96,83,100,9.26,GL,1635199882
1,Ola,59.5833,151.2833,25.56,78,98,3.33,RU,1635200112
2,Yangi Marg`ilon,40.4272,71.7189,47.62,27,1,3.33,UZ,1635200043
3,Bredasdorp,-34.5322,20.0403,60.28,90,21,11.18,ZA,1635200112
4,Husavik,66.0449,-17.3389,28.31,79,78,6.06,IS,1635200112
5,New Norfolk,-42.7826,147.0587,52.66,58,20,1.01,AU,1635200113
6,Shujālpur,23.4,76.7167,67.75,71,1,2.71,IN,1635200113
7,Tuatapere,-46.1333,167.6833,57.6,92,84,1.74,NZ,1635200113
8,Clyde River,70.4692,-68.5914,16.59,74,40,5.57,CA,1635199951
9,Ahipara,-35.1667,173.1667,67.71,63,30,5.06,NZ,1635200029
10,Cabudare,10.0289,-69.0894,80.31,73,84,5.99,VE,1635200113
11,Ponta do Sol,32.6667,-17.1,70.72,72,33,6.76,PT,1635200114
12,Touros,-5.1989,-35.4608,81.5,72,1,16.44,BR,1635200114
13,Rikitea,-23.1203,-134.9692,75.22,72,86,20.02,PF,1635200114
14,Port Lincoln,-34.7333,135.8667,63.21,51,100,15.88,AU,1635200114
15,Bowen,-20.0167,148.2333,79.23,68,98,10.11,AU,1635200115
16,Guerrero Negro,27.9769,-114.0611,71.13,62,22,17.16,MX,1635200115
17,Puerto Ayora,-0.7393,-90.3518,73.36,93,55,4.0,EC,1635200115
18,Mataura,-46.1927,168.8643,62.76,70,89,1.99,NZ,1635200115
19,Vaini,-21.2,-175.2,78.96,78,20,10.36,TO,1635200115
20,Dodoma,-6.1722,35.7395,71.37,57,89,11.65,TZ,1635200116
21,Aguazul,5.1728,-72.5471,78.39,85,94,3.65,CO,1635200116
22,Severo-Kuril'sk,50.6789,156.125,42.98,70,3,9.78,RU,1635200116
23,Ushuaia,-54.8,-68.3,35.26,87,40,20.71,AR,1635200116
24,Pevek,69.7008,170.3133,-1.12,96,100,4.18,RU,1635199937
25,Tarakan,3.3,117.6333,76.5,94,75,2.3,ID,1635200117
26,Okhotsk,59.3833,143.3,19.6,82,58,7.38,RU,1635200117
27,Abhā,18.2164,42.5053,55.65,82,0,0.0,SA,1635200117
28,Itarema,-2.9248,-39.9167,80.2,71,2,16.58,BR,1635200117
29,Batasan,12.7667,120.7833,79.86,76,22,3.91,PH,1635200118
30,Butaritari,3.0707,172.7902,81.52,75,7,7.45,KI,1635199887
31,Busselton,-33.65,115.3333,41.04,78,100,1.83,AU,1635200118
32,Fare,-16.7,-151.0167,78.39,76,100,3.4,PF,1635200118
33,Bundaberg,-24.85,152.35,77.22,95,100,7.05,AU,1635200118
34,Singkang,2.1006,102.7994,74.59,95,82,0.36,MY,1635200119
35,Longyearbyen,78.2186,15.6401,19.24,68,20,18.41,SJ,1635199958
36,Laas,46.6166,10.7002,49.46,47,96,1.34,IT,1635200119
37,Klaksvík,62.2266,-6.589,43.72,80,100,13.87,FO,1635200119
38,Castro,-24.7911,-50.0119,60.94,86,66,3.09,BR,1635200119
39,Nanortalik,60.1432,-45.2371,33.76,60,27,7.65,GL,1635200119
40,Qaanaaq,77.484,-69.3632,1.99,58,53,13.53,GL,1635199890
41,Saint-Philippe,-21.3585,55.7679,72.95,82,42,12.19,RE,1635199946
42,Bor,56.3567,44.0669,33.73,68,89,13.13,RU,1635200120
43,Ostrovnoy,68.0531,39.5131,20.48,95,64,6.44,RU,1635200120
44,Roald,62.5833,6.1333,50.32,76,90,11.5,NO,1635200007
45,Victoria Point,-27.5833,153.3,76.24,77,100,1.01,AU,1635200120
46,Bereket,39.2446,55.5154,55.85,82,36,7.52,TM,1635200121
47,Aklavik,68.2191,-135.0107,25.63,93,100,0.43,CA,1635200121
48,Iqaluit,63.7506,-68.5145,31.73,86,90,4.0,CA,1635200121
49,San Quintín,30.4833,-115.95,67.8,68,4,16.26,MX,1635200121
50,Poum,-20.2333,164.0167,76.01,68,6,15.97,NC,1635200122
51,Airai,-8.9266,125.4092,61.65,73,66,2.21,TL,1635200122
52,Kavaratti,10.5669,72.642,82.22,74,44,14.18,IN,1635199887
53,Mount Gambier,-37.8333,140.7667,48.63,65,32,6.55,AU,1635200122
54,Hobart,-42.8794,147.3294,53.02,65,75,1.99,AU,1635200021
55,Sūsangerd,31.5608,48.1831,69.82,15,0,8.88,IR,1635200123
56,Cochrane,51.1834,-114.4687,55.38,31,1,19.57,CA,1635200123
57,Dikson,73.5069,80.5464,13.8,83,100,16.75,RU,1635200123
58,Albany,42.6001,-73.9662,56.59,90,100,3.27,US,1635200122
59,Yar-Sale,66.8333,70.8333,18.72,91,95,5.21,RU,1635200123
60,Dzaoudzi,-12.7887,45.2699,78.69,83,0,4.61,YT,1635200124
61,Bethel,41.3712,-73.414,69.73,85,90,9.22,US,1635200124
62,Barrow,71.2906,-156.7887,26.62,86,90,13.8,US,1635200124
63,San Cristobal,7.7669,-72.225,77.18,94,89,2.75,VE,1635200124
64,Marsabit,2.3284,37.9899,66.83,78,88,14.7,KE,1635200125
65,Kruisfontein,-34.0033,24.7314,61.88,93,3,4.52,ZA,1635200125
66,Atbasar,51.8,68.3333,48.99,44,100,13.35,KZ,1635200125
67,Kāsaragod,12.5,75.0,78.06,91,74,3.53,IN,1635200125
68,Alofi,-19.0595,-169.9187,77.05,73,44,16.24,NU,1635200117
69,Landeck,47.1301,10.5636,44.2,77,69,2.24,AT,1635200126
70,Jinji,23.2281,110.8261,60.71,87,6,3.53,CN,1635200126
71,Goulburn,-34.75,149.7167,55.65,63,0,0.89,AU,1635200126
72,Punta Arenas,-53.15,-70.9167,42.91,65,75,10.36,CL,1635200126
73,Thaton,16.9206,97.3714,74.14,92,31,3.74,MM,1635200127
74,Cape Town,-33.9258,18.4232,63.88,64,0,5.99,ZA,1635200101
75,Chokurdakh,70.6333,147.9167,-23.42,100,97,1.77,RU,1635200127
76,Ribeira Grande,38.5167,-28.7,68.16,75,64,18.5,PT,1635200127
77,Erzin,36.9559,36.2,68.52,48,52,3.44,TR,1635200127
78,Pangnirtung,66.1451,-65.7125,24.8,74,75,2.3,CA,1635200128
79,Cedar City,37.6775,-113.0619,63.57,31,1,32.21,US,1635200128
80,Lüderitz,-26.6481,15.1594,57.2,89,4,4.79,NA,1635200128
81,Anadyr,64.75,177.4833,1.9,85,20,15.66,RU,1635200128
82,Manjacaze,-24.7117,33.8828,67.77,96,77,4.65,MZ,1635200129
83,Torbay,47.6666,-52.7314,41.29,80,90,16.11,CA,1635199897
84,Vila Franca do Campo,37.7167,-25.4333,68.41,78,30,4.94,PT,1635200129
85,Ust'-Ilimsk,58.0006,102.6619,42.51,76,82,18.25,RU,1635200129
86,Aksu,41.1231,80.2644,45.88,45,6,1.57,CN,1635200129
87,Vardø,70.3705,31.1107,32.2,78,100,23.2,NO,1635200130
88,Saint George,37.1041,-113.5841,81.07,23,20,11.99,US,1635200046
89,Saint Paul Harbor,57.79,-152.4072,44.11,70,75,12.66,US,1635200130
90,Āsosa,10.0667,34.5333,63.52,69,42,4.99,ET,1635200130
91,Cobadin,44.0833,28.2167,38.86,73,6,4.16,RO,1635200131
92,Hithadhoo,-0.6,73.0833,83.03,71,87,16.71,MV,1635199880
93,Grindavik,63.8424,-22.4338,37.87,87,75,1.14,IS,1635200131
94,Yagodnoye,62.55,149.6667,-6.57,95,27,3.65,RU,1635200131
95,Pemangkat,1.1667,108.9667,78.73,85,63,5.73,ID,1635200131
96,Sorata,-15.7667,-68.6333,45.12,83,55,9.86,BO,1635200131
97,Ballyshannon,54.5,-8.1833,50.61,87,100,8.75,IE,1635200132
98,Avarua,-21.2078,-159.775,77.05,61,75,12.66,CK,1635199892
99,Chistogorskiy,53.9835,87.3843,38.01,84,79,4.38,RU,1635200132
100,Jamestown,42.097,-79.2353,60.3,87,90,3.0,US,1635200132
101,Bluff,-46.6,168.3333,54.28,87,72,5.19,NZ,1635200132
102,Yellowknife,62.456,-114.3525,42.42,94,90,9.22,CA,1635200133
103,Tautira,-17.7333,-149.15,82.42,76,91,3.83,PF,1635200133
104,Semnan,35.5729,53.3971,54.28,27,1,4.38,IR,1635200133
105,Talnakh,69.4865,88.3972,16.41,96,100,6.62,RU,1635200133
106,Puerto Escondido,15.85,-97.0667,86.83,58,40,5.75,MX,1635200134
107,Champerico,14.3,-91.9167,86.76,75,60,6.38,GT,1635200134
108,Pagudpud,18.5616,120.7868,75.16,87,29,12.46,PH,1635200134
109,Mount Kisco,41.2043,-73.7271,71.02,90,1,6.91,US,1635200134
110,Cidreira,-30.1811,-50.2056,66.0,78,0,8.84,BR,1635200134
111,Kyren,51.6828,102.1408,35.15,63,33,2.93,RU,1635199934
112,Te Anau,-45.4167,167.7167,60.85,77,63,2.89,NZ,1635199949
113,Ségou,13.4317,-6.2157,86.54,45,89,7.27,ML,1635200135
114,Leh,34.1667,77.5833,27.07,70,29,0.94,IN,1635200135
115,Northam,51.0333,-4.2167,54.09,95,45,9.48,GB,1635200135
116,Tateyama,34.9833,139.8667,57.13,88,75,27.63,JP,1635200135
117,Waingapu,-9.6567,120.2641,79.48,81,79,3.49,ID,1635200136
118,Hermanus,-34.4187,19.2345,61.9,86,38,14.67,ZA,1635199889
119,Khovd,48.0056,91.6419,32.85,52,9,0.65,MN,1635200136
120,Norman Wells,65.282,-126.8329,23.04,100,90,2.3,CA,1635200136
121,Iwanai,42.9744,140.5089,48.78,87,100,5.57,JP,1635200137
122,Salinópolis,-0.6136,-47.3561,81.25,80,47,13.09,BR,1635200137
123,Jatiroto,-7.8833,111.1167,73.09,89,30,2.89,ID,1635200137
124,Constitución,-35.3333,-72.4167,63.0,67,73,18.07,CL,1635199973
125,Bengkulu,-3.8004,102.2655,74.44,89,100,3.4,ID,1635200137
126,Aykhal,66.0,111.5,12.76,96,95,13.56,RU,1635200138
127,San Patricio,28.017,-97.5169,92.12,58,94,11.61,US,1635200138
128,Labytnangi,66.6572,66.4183,12.63,89,32,6.51,RU,1635200138
129,Carnarvon,-24.8667,113.6333,62.67,67,90,11.5,AU,1635200138
130,Sanary-sur-Mer,43.1178,5.8001,58.87,76,27,6.89,FR,1635200139
131,Abonnema,4.7084,6.7931,76.26,91,99,4.5,NG,1635200139
132,Wanning,18.8003,110.3967,70.74,86,100,9.37,CN,1635200139
133,Nanning,22.8167,108.3167,62.94,73,26,1.36,CN,1635199893
134,Chicama,-7.8447,-79.1469,61.34,68,64,9.15,PE,1635200139
135,Djenné,13.9061,-4.5533,89.82,33,18,1.77,ML,1635200140
136,Kalakamati,-20.5929,27.3121,60.58,82,60,11.65,BW,1635200140
137,Turukhansk,65.8167,87.9833,14.22,97,100,6.35,RU,1635200030
138,Tuktoyaktuk,69.4541,-133.0374,30.2,100,90,5.75,CA,1635200140
139,Narsaq,60.9167,-46.05,28.62,49,28,9.82,GL,1635199911
140,Flinders,-34.5833,150.8552,65.8,67,2,1.99,AU,1635200030
141,Kirakira,-10.4544,161.9205,84.63,71,22,9.37,SB,1635200140
142,Marystown,47.1666,-55.1483,46.85,100,100,7.61,CA,1635200141
143,Faanui,-16.4833,-151.75,76.89,84,97,7.43,PF,1635200141
144,West Wendover,40.7391,-114.0733,45.61,76,90,24.16,US,1635200141
145,Sibiti,-3.6819,13.3499,70.27,98,98,3.04,CG,1635200141
146,Cherskiy,68.75,161.3,-11.16,96,99,2.13,RU,1635200142
147,Atuona,-9.8,-139.0333,77.22,77,19,16.13,PF,1635199903
148,Strogonovka,44.9431,34.1973,38.14,70,11,5.59,UA,1635200142
149,Atambua,-9.1061,124.8925,75.13,82,87,3.56,ID,1635200142
150,Sitka,57.0531,-135.33,48.09,66,75,0.0,US,1635200142
151,Marabu,4.4148,114.0089,77.14,100,40,1.14,MY,1635200143
152,Biak,-0.9131,122.8766,76.68,85,100,0.25,ID,1635200143
153,Ozernovskiy,51.5,156.5167,41.9,83,21,16.2,RU,1635199937
154,Halifax,44.6453,-63.5724,48.69,79,100,1.01,CA,1635199883
155,Singapore,1.2897,103.8501,77.92,94,75,2.3,SG,1635199880
156,Fairlie,55.756,-4.8556,51.22,84,97,5.01,GB,1635200143
157,Koumac,-20.5667,164.2833,77.27,59,8,2.77,NC,1635200143
158,Kaitangata,-46.2817,169.8464,55.15,83,100,6.87,NZ,1635200144
159,Merauke,-8.4667,140.3333,79.54,85,95,9.1,ID,1635200144
160,Mahébourg,-20.4081,57.7,71.89,83,75,13.8,MU,1635200144
161,Kahului,20.8947,-156.47,84.22,68,20,25.32,US,1635200144
162,Yining,29.0361,114.5636,53.73,90,99,1.01,CN,1635200145
163,Ibrā’,22.6906,58.5334,76.15,58,0,2.8,OM,1635200145
164,Souillac,-20.5167,57.5167,71.98,83,75,13.8,MU,1635200145
165,Kapaa,22.0752,-159.319,82.38,82,90,3.0,US,1635200145
166,Porteirinha,-15.7433,-43.0283,78.01,70,99,8.81,BR,1635200146
167,Mount Isa,-20.7333,139.5,83.97,28,4,4.61,AU,1635200146
168,Shāhpura,27.3833,75.9667,67.33,59,0,4.61,IN,1635200146
169,Gushikawa,26.3544,127.8686,70.83,85,1,6.91,JP,1635200146
170,Calamar,10.2511,-74.9146,80.55,84,77,6.04,CO,1635200147
171,Laguna,38.421,-121.4238,67.42,62,20,5.01,US,1635200147
172,Neuenhagen,52.5299,13.6891,46.81,81,99,5.73,DE,1635200147
173,Saint-Joseph,-21.3667,55.6167,71.96,80,28,11.81,RE,1635200147
174,Mar del Plata,-38.0023,-57.5575,62.62,55,0,11.01,AR,1635200147
175,Ekhabi,53.5102,142.9671,34.03,85,8,6.49,RU,1635200148
176,Haines Junction,60.7522,-137.5108,28.35,74,100,1.14,CA,1635200148
177,Sola,-13.8833,167.55,81.3,75,19,16.08,VU,1635200148
178,Sattahip,12.6664,100.9007,82.9,88,20,5.75,TH,1635200148
179,Korem,12.5058,39.5228,56.41,58,70,2.98,ET,1635200149
180,Mandalgovi,45.7625,106.2708,29.64,67,0,7.67,MN,1635200149
181,Port Elizabeth,-33.918,25.5701,64.09,86,0,11.9,ZA,1635199890
182,Mehamn,71.0357,27.8492,32.04,88,83,24.52,NO,1635200149
183,Kavieng,-2.5744,150.7967,82.92,71,98,3.56,PG,1635200149
184,Bethanien,-26.502,17.1583,66.43,25,0,3.85,NA,1635200150
185,Vrangel',42.7297,133.0839,49.84,83,16,3.51,RU,1635200150
186,Anapskaya,44.89,37.38,34.03,80,35,8.95,RU,1635200150
187,Noumea,-22.2763,166.4572,77.0,99,3,8.59,NC,1635200150
188,Codrington,-38.2667,141.9667,49.14,71,38,9.06,AU,1635200151
189,Lebu,-37.6167,-73.65,54.95,84,7,13.67,CL,1635200151
190,Saint-Augustin,51.226,-58.6502,40.08,61,57,11.99,CA,1635200151
191,Port Alfred,-33.5906,26.891,62.29,85,20,14.25,ZA,1635200151
192,Meulaboh,4.1363,96.1285,74.64,91,97,3.83,ID,1635200152
193,Adré,13.4667,22.2,78.75,22,72,9.57,TD,1635200152
194,Casper,42.8666,-106.3131,71.01,29,1,17.0,US,1635200152
195,Korla,41.7597,86.1469,46.63,44,0,2.21,CN,1635200025
196,Mariental,-24.6333,17.9667,71.51,19,0,6.42,NA,1635200152
197,Jacareacanga,-6.2222,-57.7528,83.37,63,83,1.66,BR,1635200153
198,Songea,-10.6833,35.65,68.32,68,29,3.36,TZ,1635200153
199,Hobyo,5.3505,48.5268,79.56,75,43,11.03,SO,1635200153
200,Vao,-22.6667,167.4833,72.09,69,51,11.25,NC,1635200153
201,Guánica,17.9716,-66.908,84.25,74,24,4.0,PR,1635200154
202,Mori,34.8333,137.9333,57.43,87,100,6.38,JP,1635200154
203,Östersund,63.1792,14.6357,37.62,100,20,4.61,SE,1635200154
204,Verkhnyaya Inta,65.9811,60.3094,13.95,92,70,11.5,RU,1635200154
205,Bosaso,11.2842,49.1816,79.0,67,78,3.91,SO,1635200155
206,Portland,45.5234,-122.6762,55.9,84,90,1.99,US,1635199871
207,Leningradskiy,69.3833,178.4167,8.4,94,100,15.66,RU,1635200155
208,Puerto del Rosario,28.5004,-13.8627,69.55,78,40,6.91,ES,1635200155
209,Lorengau,-2.0226,147.2712,83.48,71,42,4.43,PG,1635199947
210,Banda Aceh,5.5577,95.3222,78.3,82,100,6.64,ID,1635200155
211,Wanaka,-44.7,169.15,62.11,64,70,1.01,NZ,1635200156
212,Nyzhnya Duvanka,49.5846,38.1743,32.4,58,4,0.49,UA,1635200156
213,Bambous Virieux,-20.3428,57.7575,71.85,83,75,13.8,MU,1635200156
214,Dudinka,69.4058,86.1778,13.64,96,99,10.76,RU,1635200156
215,Kawai,34.2333,135.85,51.15,99,98,2.13,JP,1635200157
216,Saint-François,46.4154,3.9054,51.48,99,0,4.61,FR,1635200157
217,Mazagão,-0.115,-51.2894,86.05,67,48,6.06,BR,1635200157
218,San Vicente,-26.6167,-54.1333,63.73,70,2,1.63,AR,1635200157
219,Sørland,67.667,12.6934,47.71,95,100,18.48,NO,1635199968
220,Lianyuan,27.6883,111.6642,60.17,77,98,0.76,CN,1635200158
221,Jambi City,-1.6,103.6167,73.17,98,98,1.1,ID,1635200158
222,Hilo,19.7297,-155.09,89.28,77,40,11.5,US,1635199998
223,Rio Claro,-22.4114,-47.5614,73.22,69,94,6.13,BR,1635200158
224,Anloga,5.7947,0.8973,81.77,80,100,12.12,GH,1635200158
225,Le Port,-20.9373,55.2919,73.36,87,18,4.99,RE,1635200158
226,Virginia Beach,36.8529,-75.978,72.01,90,75,4.61,US,1635199905
227,Kiknur,57.3034,47.2011,30.7,78,99,12.68,RU,1635200159
228,Lawton,34.6087,-98.3903,83.73,38,1,12.66,US,1635199983
229,Robertsport,6.7533,-11.3686,79.52,82,100,7.65,LR,1635200159
230,Homer,59.6425,-151.5483,42.69,77,40,5.75,US,1635200048
231,Giddarbāha,30.2,74.6667,65.53,64,0,5.03,IN,1635200159
232,Cap-aux-Meules,47.3821,-61.8597,46.45,71,75,12.66,CA,1635200160
233,Batagay,67.6333,134.6333,-3.32,100,75,2.15,RU,1635200160
234,Kidal,18.4411,1.4078,88.0,13,81,5.88,ML,1635200160
235,Jaleshwar,26.6471,85.8008,68.99,77,0,3.62,NP,1635200160
236,Mandera,3.9366,41.867,83.03,57,82,14.23,KE,1635200161
237,Xining,36.6167,101.7667,35.37,94,100,3.13,CN,1635200161
238,Cabo San Lucas,22.8909,-109.9124,88.61,57,1,14.97,MX,1635200162
239,Antalaha,-14.9003,50.2788,71.38,83,23,5.06,MG,1635200162
240,Lagoa,39.05,-27.9833,67.41,72,2,11.16,PT,1635200163
241,Aquiraz,-3.9014,-38.3911,82.49,77,3,14.12,BR,1635200163
242,East London,-33.0153,27.9116,64.58,80,90,14.74,ZA,1635200008
243,Arica,-18.475,-70.3042,67.55,72,0,9.22,CL,1635200163
244,Santa Fe,-31.6333,-60.7,81.91,44,0,7.23,AR,1635200164
245,George Town,5.4112,100.3354,80.53,89,20,0.0,MY,1635199933
246,Melfi,40.9965,15.6514,57.49,97,100,3.11,IT,1635200164
247,Sabang,5.8933,95.3214,80.13,80,100,7.0,ID,1635200164
248,Jiangyou,31.7667,104.7167,56.7,90,100,0.56,CN,1635200164
249,Kerman,30.2832,57.0788,42.66,31,0,4.61,IR,1635200165
250,Shar,49.5886,81.0453,40.35,51,82,8.86,KZ,1635200165
251,Ginda,30.6945,78.4932,47.35,41,0,7.05,IN,1635200165
252,Brigantine,39.4101,-74.3646,74.26,87,20,5.75,US,1635200165
253,Palmer,42.1584,-72.3287,54.68,84,90,1.01,US,1635200166
254,Anantapur,14.6833,77.6,74.19,65,70,5.68,IN,1635200166
255,Carutapera,-1.195,-46.02,80.85,78,36,9.24,BR,1635200034
256,Ayagoz,47.9714,80.4392,38.25,45,65,2.82,KZ,1635200166
257,Yeppoon,-23.1333,150.7333,71.38,84,100,8.9,AU,1635200166
258,Berlevåg,70.8578,29.0864,33.12,82,95,25.59,NO,1635200166
259,Ilulissat,69.2167,-51.1,15.82,67,0,1.14,GL,1635200167
260,Faya,18.3851,42.4509,57.31,74,0,2.51,SA,1635200167
261,Panguna,-6.3164,155.4848,77.45,73,30,1.77,PG,1635200167
262,Upernavik,72.7868,-56.1549,15.21,61,11,5.64,GL,1635200167
263,Nikolskoye,59.7035,30.7861,46.87,85,99,9.57,RU,1635200168
264,Luau,-10.7073,22.2247,67.15,84,100,3.04,AO,1635200168
265,Saskylakh,71.9167,114.0833,-1.98,97,100,2.66,RU,1635199884
266,Roswell,34.0232,-84.3616,76.12,79,1,1.99,US,1635199909
267,Valera,9.3178,-70.6036,76.39,92,76,1.77,VE,1635200168
268,Port Hardy,50.6996,-127.4199,53.6,83,100,27.67,CA,1635200169
269,Bilibino,68.0546,166.4372,-14.48,94,98,2.39,RU,1635200169
270,Saint-Paul,-21.0096,55.2707,73.49,87,21,1.01,RE,1635200169
271,Quatre Cocos,-20.2078,57.7625,71.71,74,23,17.22,MU,1635200169
272,Eyl,7.9803,49.8164,77.67,77,63,5.5,SO,1635200170
273,Tonj,7.2737,28.6822,75.45,76,47,2.91,SS,1635200170
274,Goedereede,51.8175,3.9806,54.0,88,94,16.4,NL,1635200170
275,Khatanga,71.9667,102.5,5.47,96,100,7.9,RU,1635200170
276,El Alto,-4.2714,-81.2147,65.86,75,89,9.66,PE,1635200171
277,Calama,-22.4667,-68.9333,72.09,8,0,26.46,CL,1635200171
278,Fort Nelson,58.8053,-122.7002,29.79,100,90,2.3,CA,1635200171
279,San Jerónimo,-11.9472,-75.2829,61.11,57,78,6.64,PE,1635200171
280,Acarí,-15.4311,-74.6158,70.07,62,33,7.2,PE,1635200172
281,Ko Samui,9.5357,99.9357,81.27,76,52,6.51,TH,1635200172
282,Okato,-39.2,173.8833,66.42,91,99,9.28,NZ,1635200172
283,Hambantota,6.1241,81.1185,78.76,84,100,10.76,LK,1635200173
284,Beroroha,-21.6667,45.1667,81.93,51,14,8.84,MG,1635200173
285,Yulara,-25.2406,130.9889,76.84,31,1,6.91,AU,1635200173
286,Udachny,66.4167,112.4,20.43,95,100,5.93,RU,1635200173
287,Vila Velha,-20.3297,-40.2925,73.35,83,75,11.5,BR,1635199970
288,Kingsland,30.8,-81.6898,85.91,56,92,3.4,US,1635199998
289,Nikšić,42.7731,18.9445,49.87,62,0,3.67,ME,1635200174
290,Serov,59.6033,60.5787,27.27,69,6,9.66,RU,1635200174
291,Saint-Pierre,-21.3393,55.4781,73.04,78,75,4.61,RE,1635200174
292,Kargopol',61.5071,38.9456,41.32,96,100,9.84,RU,1635200174
293,Alta Floresta,-9.8756,-56.0861,78.03,72,97,3.87,BR,1635200175
294,Port Blair,11.6667,92.75,80.24,82,92,6.76,IN,1635200175
295,Kokkola,63.8385,23.1307,46.56,90,90,4.0,FI,1635200175
296,Itoman,26.1247,127.6694,71.62,70,20,9.22,JP,1635200175
297,Alexandria,31.2156,29.9553,71.98,63,0,8.19,EG,1635200122
298,Caarapó,-22.6342,-54.8222,69.37,73,19,4.92,BR,1635200176
299,Vayalār,9.7,76.3333,73.38,89,97,4.47,IN,1635200176
300,Mugur-Aksy,50.35,90.5,22.03,73,56,5.7,RU,1635200176
301,Rio Grande,-32.035,-52.0986,78.91,73,0,9.01,BR,1635200176
302,Mirny,62.5353,113.9611,30.79,79,99,10.58,RU,1635200177
303,Nadym,65.5333,72.5167,25.12,88,100,5.53,RU,1635200177
304,Sun Valley,39.5963,-119.776,47.57,72,75,7.0,US,1635200023
305,Tyachiv,48.0118,23.5706,39.81,60,0,4.18,UA,1635200177
306,Port Hedland,-20.3167,118.5667,73.45,88,0,8.05,AU,1635200177
307,Orán,-23.1322,-64.326,88.38,14,28,7.09,AR,1635200178
308,Sandwick,60.0,-1.25,49.82,71,20,24.16,GB,1635200178
309,Vestmannaeyjar,63.4427,-20.2734,41.31,82,100,4.76,IS,1635200178
310,Guéret,46.1667,1.8667,50.63,99,100,3.27,FR,1635200178
311,Ouro Preto do Oeste,-10.7481,-62.2158,72.03,97,100,4.36,BR,1635200178
312,Boralday,43.3578,76.8594,37.26,70,20,6.71,KZ,1635200179
313,Borovskoy,53.8,64.15,39.25,82,100,13.13,KZ,1635200179
314,Jiwani,25.05,61.7417,78.17,77,4,5.5,PK,1635200179
315,Moerai,-22.4333,-151.3333,73.29,73,31,18.12,PF,1635200179
316,Xichang,27.8964,102.2634,57.33,84,67,1.61,CN,1635200180
317,Lompoc,34.6391,-120.4579,66.56,76,40,14.97,US,1635200028
318,Botou,38.0667,116.5667,52.74,71,92,7.34,CN,1635200180
319,Yokadouma,3.5167,15.05,71.19,94,66,0.16,CM,1635200180
320,Kieta,-6.2167,155.6333,83.53,71,27,0.74,PG,1635200180
321,Kyra,49.5776,111.9753,28.89,80,7,5.17,RU,1635200181
322,Esperance,-33.8667,121.9,55.27,71,63,6.29,AU,1635200181
323,Sefophe,-22.1833,27.9667,60.53,85,92,13.29,BW,1635200181
324,Victor Harbor,-35.5667,138.6167,68.72,40,9,11.21,AU,1635199978
325,Oistins,13.0667,-59.5333,82.49,69,20,23.02,BB,1635199898
326,North Myrtle Beach,33.816,-78.68,74.35,87,90,3.0,US,1635200181
327,Fitchburg,42.5834,-71.8023,53.92,92,90,3.0,US,1635200182
328,Chapais,49.7834,-74.8492,38.98,74,100,4.88,CA,1635200182
329,Povenets,62.8487,34.8262,38.95,97,100,6.31,RU,1635200182
330,Djambala,-2.5447,14.7533,68.36,93,100,2.53,CG,1635200182
331,Egvekinot,66.3167,-179.1667,1.67,86,15,6.13,RU,1635200183
332,Chui,-33.6971,-53.4616,66.18,74,0,1.19,UY,1635200183
333,Ciparay,-7.4249,108.4742,75.99,87,96,1.28,ID,1635200183
334,Weiser,44.251,-116.9693,53.8,83,100,2.66,US,1635200183
335,Grand Gaube,-20.0064,57.6608,72.0,81,8,1.01,MU,1635200184
336,Severobaykal'sk,55.65,109.3167,33.89,97,100,11.16,RU,1635200184
337,Jumla,29.2747,82.1838,43.23,85,4,3.91,NP,1635200107
338,Isangel,-19.55,169.2667,79.36,75,11,9.8,VU,1635200039
339,Flagstaff,35.1981,-111.6513,65.57,47,1,15.99,US,1635200184
340,Tromsø,69.6496,18.957,27.37,93,0,3.44,NO,1635200184
341,Mauriti,-7.3892,-38.7744,91.71,29,53,3.2,BR,1635200185
342,Tazovsky,67.4667,78.7,15.31,91,33,9.17,RU,1635200185
343,Caravelas,-17.7125,-39.2481,75.04,94,100,3.0,BR,1635200185
344,Maningrida,-12.0667,134.2667,82.31,75,71,6.31,AU,1635200185
345,Bétaré Oya,5.6,14.0833,68.31,95,94,3.11,CM,1635200185
346,Tatsunochō-tominaga,34.8667,134.55,62.29,90,64,6.51,JP,1635200186
347,Dubbo,-32.25,148.6167,55.53,67,0,6.91,AU,1635200186
348,Karratha,-20.7377,116.8463,73.76,44,2,10.78,AU,1635200186
349,Covington,39.0837,-84.5086,55.47,89,90,10.36,US,1635200186
350,Senador José Porfírio,-2.5908,-51.9542,83.84,67,73,4.94,BR,1635200187
351,Oranjemund,-28.55,16.4333,58.8,87,94,7.29,NA,1635199960
352,Pisco,-13.7,-76.2167,64.45,72,0,19.57,PE,1635200187
353,Cayenne,4.9333,-52.3333,77.09,91,75,3.0,GF,1635200187
354,Nhulunbuy,-12.2333,136.7667,84.81,74,40,9.22,AU,1635200187
355,Rawson,-43.3002,-65.1023,66.6,30,100,21.9,AR,1635200188
356,Skała,50.2305,19.8536,44.26,82,58,2.84,PL,1635200188
357,Alugan,12.2188,125.4808,79.7,84,99,9.71,PH,1635199905
358,Teguise,29.0605,-13.564,66.42,73,20,6.91,ES,1635200188
359,Naze,28.3667,129.4833,67.12,64,0,9.75,JP,1635200188
360,Kununurra,-15.7667,128.7333,80.58,78,80,2.3,AU,1635200189
361,Thompson,55.7435,-97.8558,39.36,70,75,4.61,CA,1635200189
362,Emerald,-23.5333,148.1667,75.38,63,39,15.3,AU,1635200189
363,Broken Hill,-31.95,141.4333,62.22,22,0,11.25,AU,1635200189
364,Deputatsky,69.3,139.9,-2.78,99,99,0.76,RU,1635199920
365,Alexeni,44.6833,26.7,45.46,61,0,5.01,RO,1635200190
366,Huron,41.1501,-82.5499,60.08,95,100,6.04,US,1635200190
367,Isla Aguada,18.7833,-91.4667,87.84,74,10,11.59,MX,1635200190
368,Morada Nova,-5.1067,-38.3725,80.26,70,1,12.35,BR,1635200190
369,Najrān,17.4924,44.1277,63.25,18,15,0.49,SA,1635200191
370,Lomovka,53.9194,58.3672,32.92,84,89,10.22,RU,1635200191
371,Nizhniy Kuranakh,58.8353,125.4869,33.69,91,100,8.86,RU,1635200191
372,Olafsvik,64.8945,-23.7142,35.01,68,63,5.75,IS,1635199894
373,Ammon,43.4696,-111.9666,46.45,91,90,1.01,US,1635199894
374,Esso,55.9333,158.7,27.45,95,98,4.9,RU,1635200191
375,Guisa,20.255,-76.5386,84.51,77,93,2.75,CU,1635200192
376,Riyadh,24.6877,46.7219,75.34,40,0,8.01,SA,1635199895
377,Bom Jesus,-9.0744,-44.3586,83.07,60,63,1.97,BR,1635200192
378,Ambilobe,-13.2,49.05,74.62,64,28,6.89,MG,1635200192
379,Salalah,17.0151,54.0924,75.29,73,20,3.44,OM,1635200192
380,Batagay-Alyta,67.8006,130.4114,2.53,90,100,2.91,RU,1635200193
381,Bud,39.447,-86.1758,53.46,97,100,13.8,US,1635200193
382,Kabinda,-6.1333,24.4833,68.74,93,94,3.83,CD,1635200193
383,Ust-Tsilma,65.441,52.1498,15.33,98,84,3.15,RU,1635200193
384,Vila,42.0304,-8.1588,49.93,88,1,3.58,PT,1635200194
385,Lázaro Cárdenas,17.9583,-102.2,75.78,94,100,7.38,MX,1635200194
386,Makakilo City,21.3469,-158.0858,86.32,51,75,12.66,US,1635200194
387,Pinega,64.7001,43.3936,23.67,99,100,2.42,RU,1635200194
388,Port Moresby,-9.4431,147.1797,80.02,89,75,3.44,PG,1635200194
389,Nichinan,31.6,131.3667,49.68,87,1,4.12,JP,1635200195
390,Novobiryusinskiy,56.9578,97.7076,43.97,68,90,14.54,RU,1635200195
391,Kindersley,51.4668,-109.1682,55.18,62,90,14.97,CA,1635200195
392,Yashkino,55.8736,85.4265,34.75,87,100,3.56,RU,1635200195
393,Kiruna,67.8557,20.2251,22.12,100,90,0.0,SE,1635200196
394,Baykit,61.67,96.37,28.27,85,100,8.1,RU,1635200196
395,Mossamedes,-15.1961,12.1522,63.39,83,7,7.27,AO,1635200051
396,Hong Kong,22.2855,114.1577,75.33,77,99,1.99,HK,1635199959
397,Camacha,33.0833,-16.3333,66.96,68,75,11.5,PT,1635200033
398,Broome,42.2506,-75.833,66.58,69,1,4.0,US,1635199963
399,Bharatpur,27.2167,77.4833,71.89,64,0,5.84,IN,1635200196
400,Krasnoarmiys'k,48.282,37.1758,32.76,51,3,3.85,UA,1635200196
401,Marzuq,14.4,46.4667,70.65,57,20,2.55,YE,1635200197
402,Vallenar,-28.5708,-70.7581,71.65,39,0,6.71,CL,1635200115
403,Esmeraldas,-19.7625,-44.3139,72.64,87,98,10.71,BR,1635200197
404,Raudeberg,61.9875,5.1352,49.19,89,100,5.99,NO,1635200197
405,Primorsko,42.2667,27.7667,43.27,68,71,9.55,BG,1635200197
406,Atasū,48.6814,71.6433,43.2,47,100,6.62,KZ,1635200198
407,Desbiens,48.4178,-71.9495,43.72,80,100,3.13,CA,1635200198
408,Nizwá,22.9333,57.5333,78.31,44,0,3.6,OM,1635200198
409,Arraial do Cabo,-22.9661,-42.0278,69.76,88,90,4.61,BR,1635200198
410,Chifeng,42.2683,118.9636,43.59,44,7,6.26,CN,1635200029
411,Clarence Town,-32.5833,151.7833,67.6,59,49,3.53,AU,1635200199
412,Mukhen,48.1,136.1,39.2,71,17,5.79,RU,1635200199
413,Punta de Piedra,7.6176,-71.4916,78.71,88,74,1.34,VE,1635200199
414,Gwadar,25.1216,62.3254,77.45,72,0,3.29,PK,1635199923
415,Waterloo,43.4668,-80.5164,45.28,96,90,10.0,CA,1635200199
416,Plătăreşti,44.35,26.3667,45.57,77,0,6.13,RO,1635200200
417,Provideniya,64.3833,-173.3,21.31,58,90,4.47,RU,1635200200
418,Marang,5.2056,103.2059,76.91,89,59,4.38,MY,1635200200
419,Pacific Grove,36.6177,-121.9166,64.8,77,20,5.01,US,1635200051
420,Nizhnyaya Omka,55.4338,74.9426,44.74,71,100,14.25,RU,1635200200
421,Sur,22.5667,59.5289,80.47,66,0,7.31,OM,1635199988
422,Babynino,54.39,35.73,31.75,78,17,10.89,RU,1635200201
423,Valparaíso,-33.0393,-71.6273,71.83,54,0,12.66,CL,1635200001
424,Chernyshevskiy,63.0128,112.4714,28.74,95,100,8.28,RU,1635200201
425,Houma,29.5958,-90.7195,87.8,63,1,8.05,US,1635200167
426,Kenora,49.8167,-94.4337,46.38,57,20,9.22,CA,1635200201
427,Port Macquarie,-31.4333,152.9167,69.89,70,52,8.01,AU,1635200201
428,Tarko-Sale,64.9225,77.785,22.41,90,91,8.16,RU,1635200202
429,Gaeta,41.2183,13.5628,64.74,67,100,2.91,IT,1635200202
430,Karpathos,35.507,27.2132,66.16,63,67,21.85,GR,1635200202
431,Lae,-6.7221,146.9847,81.43,71,95,5.5,PG,1635200202
432,Stokmarknes,68.5646,14.9108,43.5,95,100,5.35,NO,1635200203
433,Tiksi,71.6872,128.8694,2.41,96,98,5.03,RU,1635200203
434,Necochea,-38.5473,-58.7368,58.03,65,19,4.29,AR,1635199970
435,Road Town,18.4167,-64.6167,83.19,78,40,8.05,VG,1635200203
436,Madalag,10.8994,122.9828,79.45,85,92,8.21,PH,1635200203
437,Kumul,42.8,93.45,46.08,35,0,7.11,CN,1635200022
438,Kara-Tyube,44.6336,45.4369,43.48,69,98,6.53,RU,1635200204
439,Los Llanos de Aridane,28.6585,-17.9182,65.95,79,40,5.01,ES,1635200204
440,Lubango,-14.9172,13.4925,61.25,44,6,4.52,AO,1635200204
441,Acapulco de Juárez,16.8634,-99.8901,82.22,78,75,2.3,MX,1635199986
442,Saldanha,-33.0117,17.9442,61.9,75,55,11.23,ZA,1635199915
443,Binga,-17.6203,27.3414,80.24,46,31,3.4,ZW,1635200204
444,Hofn,64.2539,-15.2082,40.19,73,100,6.13,IS,1635200205
445,Roebourne,-20.7833,117.1333,74.52,43,3,10.22,AU,1635200205
446,Mae Sai,20.4335,99.8762,72.72,99,40,1.19,TH,1635200205
447,Isla Mujeres,21.2311,-86.731,87.85,77,100,8.97,MX,1635200205
448,Farah,32.5,62.5,57.45,16,0,3.87,AF,1635200206
449,Garoowe,8.4054,48.4845,72.95,80,58,10.58,SO,1635200206
450,Barkhan,29.8977,69.5256,58.84,63,0,3.83,PK,1635200206
451,Buala,-8.145,159.5921,83.66,71,44,7.4,SB,1635200206
452,Zharkent,44.1628,80.0,46.35,44,0,4.32,KZ,1635200207
453,Barabinsk,55.3571,78.357,43.95,73,100,10.94,RU,1635200207
454,Binzhou,37.3667,118.0167,52.45,67,98,5.19,CN,1635200207
455,Viseu,40.661,-7.9097,53.87,75,0,3.44,PT,1635200207
456,Morristown,36.214,-83.2949,70.5,74,90,3.44,US,1635199927
457,Khandyga,62.6667,135.6,21.61,98,99,2.53,RU,1635199935
458,Dauriya,49.9333,116.8667,29.05,84,5,13.2,RU,1635200208
459,Hirara,24.8,125.2833,75.06,68,20,16.11,JP,1635200208
460,Springbok,-29.6643,17.8865,65.88,21,96,6.08,ZA,1635200208
461,Gamba,-2.65,10.0,76.24,91,100,9.37,GA,1635200208
462,Kendari,-3.945,122.4989,76.57,90,89,1.54,ID,1635200209
463,Alice Springs,-23.7,133.8833,78.35,47,10,8.05,AU,1635200209
464,La Ronge,55.1001,-105.2842,43.05,65,90,18.41,CA,1635200209
465,Waipawa,-41.4122,175.5153,63.23,57,8,7.58,NZ,1635200209
466,Qasigiannguit,68.8193,-51.1922,16.05,81,1,3.83,GL,1635200209
467,Singaraja,-8.112,115.0882,76.96,83,87,3.29,ID,1635200015
468,Yulin,22.6333,110.15,62.33,78,9,2.82,CN,1635200207
469,Danielskuil,-28.1887,23.5395,58.82,62,1,6.06,ZA,1635200210
470,Auki,-8.7676,160.7034,83.53,69,53,4.7,SB,1635200117
471,Yako,12.9667,-2.2667,84.2,41,14,7.23,BF,1635200210
472,Katsuura,35.1333,140.3,57.22,94,100,24.7,JP,1635200210
473,Mayo,38.8876,-76.5119,72.57,86,90,3.0,US,1635200210
474,Hualmay,-11.0964,-77.6139,66.36,74,37,9.01,PE,1635200211
475,Dukat,62.55,155.55,-0.09,100,80,3.6,RU,1635200211
476,Tiznit Province,29.5833,-9.5,62.1,78,0,1.68,MA,1635200211
477,Bandarbeyla,9.4942,50.8122,76.68,80,39,1.81,SO,1635200211
478,Tommot,58.9564,126.2925,34.61,97,100,8.84,RU,1635200212
479,Banjar,-8.19,114.9675,76.91,91,91,4.41,ID,1635200212
480,Muros,42.7762,-9.0603,60.84,95,0,6.06,ES,1635200042
481,Fairbanks,64.8378,-147.7164,31.1,91,90,0.0,US,1635200212
482,Honningsvåg,70.9821,25.9704,34.36,77,89,23.13,NO,1635200212
483,Kenai,60.5544,-151.2583,42.15,80,20,5.75,US,1635200213
484,Kutum,14.2,24.6667,73.44,22,53,8.1,SD,1635200213
485,Mweka,-4.85,21.5667,68.56,98,95,1.97,CD,1635200213
486,College,64.8569,-147.8028,30.58,91,90,0.0,US,1635200213
487,Tegul'det,57.3064,88.1667,35.76,84,98,3.67,RU,1635200214
488,Imst,47.2684,10.6698,32.47,80,73,3.04,AT,1635200214
489,Coquimbo,-29.9533,-71.3436,58.73,82,75,10.36,CL,1635200214
490,Coyhaique,-45.5752,-72.0662,46.35,81,90,9.22,CL,1635200214
491,São José do Rio Pardo,-21.5956,-46.8886,72.16,89,90,1.54,BR,1635200215
492,Cap Malheureux,-19.9842,57.6142,69.48,81,6,1.99,MU,1635199983
493,Xinmin,41.9908,122.8253,55.29,93,75,8.41,CN,1635200215
494,Ulaangom,49.9811,92.0667,30.6,75,16,2.08,MN,1635200193
495,High Level,58.5169,-117.136,39.31,100,90,12.66,CA,1635200215
496,Dhone,15.4167,77.8833,70.75,75,1,6.13,IN,1635200216
497,Balyqshy,47.0667,51.8667,33.8,75,40,11.18,KZ,1635200216
498,Sesvete,45.8311,16.1164,46.67,86,0,3.44,HR,1635200216
499,Kuril'sk,45.2333,147.8833,50.09,81,95,6.22,RU,1635200216
500,Ampanihy,-24.7,44.75,71.53,91,6,5.35,MG,1635200217
501,Ancud,-41.8697,-73.8203,54.43,94,100,14.61,CL,1635200217
502,Omaruru,-21.4333,15.9333,63.41,35,0,1.99,NA,1635200217
503,Hunchun,42.8675,130.3581,41.49,85,0,1.97,CN,1635200217
504,Gallup,35.5281,-108.7426,75.04,20,1,5.01,US,1635200218
505,Grand-Santi,4.25,-54.3833,73.99,98,100,5.46,GF,1635200218
506,Havelock,34.8791,-76.9013,72.99,89,75,0.0,US,1635200218
507,Maumere,-8.6199,122.2111,80.69,81,92,4.74,ID,1635200219
508,Sept-Îles,50.2001,-66.3821,46.06,84,20,5.99,CA,1635200219
509,Rawlins,41.7911,-107.2387,70.23,23,1,26.46,US,1635200219
510,Vostok,46.4856,135.8833,32.58,77,2,4.61,RU,1635200219
511,Kisangani,0.5167,25.2,71.44,98,100,2.08,CD,1635200220
512,Pachino,36.7186,15.0907,68.04,82,76,14.29,IT,1635200220
513,Richards Bay,-28.783,32.0377,63.28,95,100,2.06,ZA,1635199995
514,Rincon,32.296,-81.2354,79.25,92,75,5.75,US,1635200220
515,Mattawa,46.7379,-119.9028,63.12,41,97,18.99,US,1635200002
516,Warrington,53.3925,-2.5802,50.68,90,0,1.01,GB,1635200220
517,Mangan,27.5167,88.5333,60.87,73,19,5.41,IN,1635200221
518,La Cruz,23.9167,-106.9,83.97,70,0,8.81,MX,1635200221
519,Sterling,39.0062,-77.4286,72.5,92,90,1.99,US,1635200137
520,Camopi,3.1655,-52.3158,74.84,99,100,3.44,GF,1635200222
521,Anta,25.15,76.3,73.02,63,47,3.98,IN,1635200222
522,Dehlorān,32.6941,47.2679,70.63,18,0,3.33,IR,1635199965
523,Oussouye,12.485,-16.5469,80.78,80,99,1.14,SN,1635200223
524,Riachão,-7.3619,-46.6172,81.79,61,39,5.21,BR,1635200223
525,Manaus,-3.1019,-60.025,88.3,79,40,0.0,BR,1635200003
526,Traverse City,44.7631,-85.6206,49.01,88,82,7.0,US,1635200223
527,Funadhoo,6.15,73.2667,81.63,78,96,9.26,MV,1635200224
528,Havre-St-Pierre,50.2334,-63.5986,44.6,87,1,8.05,CA,1635200224
529,Huanren,41.2647,125.3667,46.06,92,100,4.81,CN,1635200224
530,Gizo Government Station,-8.103,156.8419,83.43,73,26,6.69,SB,1635200224
531,São João da Barra,-21.6403,-41.0511,71.28,85,99,9.95,BR,1635200225
532,Talcahuano,-36.7167,-73.1167,62.28,67,0,18.41,CL,1635200225
533,Maraã,-1.8333,-65.3667,76.59,90,95,1.68,BR,1635200225
534,Venado Tuerto,-33.7456,-61.9688,83.77,25,0,2.48,AR,1635200225
535,Domoni,-12.2569,44.5319,77.86,84,61,8.55,KM,1635200226
536,Tanakpur,29.0833,80.1167,63.86,72,0,5.21,IN,1635200226
537,Kaeo,-35.1,173.7833,72.32,82,30,5.1,NZ,1635200226
538,Tabou,4.423,-7.3528,78.04,81,100,8.66,CI,1635200226
539,Corinth,37.9407,22.9573,59.11,76,100,7.99,GR,1635200227
540,Tarsus,36.9188,34.8784,71.47,43,27,4.09,TR,1635200227
541,Hasaki,35.7333,140.8333,57.6,89,100,35.59,JP,1635200227
542,Smithers,54.7804,-127.1743,43.12,93,90,4.61,CA,1635200227
543,Praia da Vitória,38.7333,-27.0667,69.76,82,40,13.8,PT,1635200228
544,Vanimo,-2.6741,141.3028,79.0,86,45,4.97,PG,1635200228
545,Davao,6.813,125.7085,75.38,85,96,7.63,PH,1635200228
546,Ternate,0.8,127.4,80.87,81,35,4.43,ID,1635200228
547,Albertville,34.2676,-86.2089,75.15,60,1,10.36,US,1635199982
548,Coolum Beach,-26.5333,153.1,73.11,92,100,3.71,AU,1635200229
549,Villa María,-32.4075,-63.2402,85.82,36,0,9.26,AR,1635200229
550,Nogliki,51.8333,143.1667,36.97,86,2,11.88,RU,1635199937
551,Santa Cruz de la Sierra,-17.8,-63.1667,78.85,53,95,4.61,BO,1635200229
552,Penzance,50.1186,-5.5371,55.76,84,94,15.08,GB,1635200229
553,Plouzané,48.3833,-4.6167,57.25,91,90,11.5,FR,1635200230
554,Oodweyne,9.4092,45.064,74.46,48,70,4.65,SO,1635200230
555,Esim,4.8699,-2.2405,78.21,87,77,9.26,GH,1635200101
556,Wonthaggi,-38.6044,145.5913,56.71,64,0,6.4,AU,1635200230
557,Livingston,55.9029,-3.5226,48.31,87,0,5.75,GB,1635200230
558,Yumen,40.2833,97.2,37.49,53,21,3.2,CN,1635200231
559,Kiryat Gat,31.61,34.7642,68.4,100,0,2.95,IL,1635200231
560,Gurmatkāl,16.8667,77.4,66.2,70,6,7.43,IN,1635200231
561,Qingdao,36.0986,120.3719,49.6,87,78,4.47,CN,1635200231
562,Savannah Bight,16.45,-85.85,89.65,83,7,21.88,HN,1635200232
563,Pedersore,63.65,22.6833,46.53,95,99,12.93,FI,1635200232
564,Tucumã,-0.1833,-50.05,81.95,75,6,10.74,BR,1635200120
565,Philadelphia,39.9523,-75.1638,75.56,73,75,1.99,US,1635200123
566,Jardim,-21.4803,-56.1381,73.74,50,73,4.65,BR,1635200232
567,Ayan,56.45,138.1667,39.54,66,94,4.18,RU,1635200232
568,Suclayin,15.7568,121.5503,73.81,91,58,1.45,PH,1635200233
569,Vung Tau,10.346,107.0843,78.1,88,100,4.27,VN,1635200233
570,Bathsheba,13.2167,-59.5167,83.01,69,20,23.02,BB,1635200233
571,Padeş,45.0167,22.85,39.76,76,0,3.87,RO,1635200233
572,Antsohihy,-14.8796,47.9875,76.35,69,3,6.33,MG,1635200234
573,Lebedinyy,58.5167,125.5167,29.1,95,100,11.95,RU,1635200234
574,Mapiripán,2.8892,-72.1256,77.22,90,97,7.78,CO,1635200234
575,Mayumba,-3.432,10.6554,76.69,91,100,10.42,GA,1635200234
576,Acajutla,13.5928,-89.8275,93.54,75,31,4.74,SV,1635200235
577,Knysna,-34.0363,23.0471,57.58,90,47,4.09,ZA,1635200235
578,Dunedin,-45.8742,170.5036,54.68,86,100,9.08,NZ,1635200235
579,Correntina,-13.3433,-44.6367,75.13,78,90,0.89,BR,1635200235
580,Harper,4.375,-7.7169,77.97,80,100,8.61,LR,1635200236
581,Belaya Gora,68.5333,146.4167,-6.07,99,88,2.01,RU,1635200236
582,Petropavlovsk-Kamchatskiy,53.0452,158.6483,32.59,75,75,2.24,RU,1635200236
583,Dwārka,22.2394,68.9678,77.92,53,0,8.14,IN,1635200236
584,Sakaraha,-22.9,44.5333,71.73,53,60,3.38,MG,1635200237
