,City,Lat,Lng,Max Temp,Humidity,Cloudiness,Wind Speed,Country,Date
0,Punta Arenas,-53.15,-70.9167,41.02,93,75,25.32,CL,1635180563
1,Lorengau,-2.0226,147.2712,81.23,77,35,4.76,PG,1635180563
2,Ushuaia,-54.8,-68.3,37.02,86,40,31.07,AR,1635180563
3,Kruisfontein,-34.0033,24.7314,64.89,81,1,14.18,ZA,1635180563
4,Rikitea,-23.1203,-134.9692,74.62,73,100,19.15,PF,1635180564
5,Dicabisagan,17.0818,122.4157,75.52,93,100,4.36,PH,1635180564
6,Butaritari,3.0707,172.7902,81.5,73,7,5.35,KI,1635180564
7,Pauini,-7.7136,-66.9764,75.9,92,100,4.97,BR,1635180564
8,Teahupoo,-17.8333,-149.2667,69.76,79,90,3.87,PF,1635180565
9,Manacapuru,-3.2997,-60.6206,90.18,49,95,4.14,BR,1635180565
10,Los Llanos de Aridane,28.6585,-17.9182,69.55,71,75,4.0,ES,1635180565
11,Cape Town,-33.9258,18.4232,73.81,60,0,5.99,ZA,1635180358
12,Bubaque,11.2833,-15.8333,83.28,72,100,6.53,GW,1635180565
13,Mehamn,71.0357,27.8492,30.38,86,0,8.05,NO,1635180566
14,Port Alfred,-33.5906,26.891,64.92,77,48,23.85,ZA,1635180566
15,Shahreza,32.0339,51.8794,55.49,22,0,5.39,IR,1635180566
16,Caravelas,-17.7125,-39.2481,74.88,93,100,8.93,BR,1635180566
17,Kiunga,-6.1219,141.2906,73.15,99,100,0.76,PG,1635180567
18,Acapulco de Juárez,16.8634,-99.8901,75.02,88,90,8.05,MX,1635180479
19,Skibbereen,51.55,-9.2667,53.4,82,100,11.36,IE,1635180567
20,Udachny,66.4167,112.4,6.31,98,62,3.85,RU,1635180567
21,Iraquara,-12.2486,-41.6194,80.58,69,96,7.07,BR,1635180567
22,Vaini,-21.2,-175.2,71.76,88,20,5.75,TO,1635180568
23,Puerto Madero,14.7208,-92.4215,83.12,73,9,3.02,MX,1635180568
24,Esperance,-33.8667,121.9,53.44,82,100,12.62,AU,1635180568
25,Ucluelet,48.9329,-125.5528,53.1,90,100,5.99,CA,1635180344
26,Laguna,38.421,-121.4238,59.13,94,90,4.0,US,1635180568
27,Kapaa,22.0752,-159.319,73.72,89,20,13.8,US,1635180569
28,Labuhan,-6.8844,112.2051,80.13,76,41,7.4,ID,1635180569
29,Chokurdakh,70.6333,147.9167,-19.77,100,95,0.27,RU,1635180569
30,Diu,20.7141,70.9822,77.43,67,1,9.19,IN,1635180569
31,Hithadhoo,-0.6,73.0833,82.78,75,93,14.38,MV,1635180570
32,Arraial do Cabo,-22.9661,-42.0278,75.16,68,75,11.5,BR,1635180570
33,Vestmannaeyjar,63.4427,-20.2734,45.59,93,40,9.22,IS,1635180570
34,Chui,-33.6971,-53.4616,79.92,40,0,19.64,UY,1635180570
35,Imbituba,-28.24,-48.6703,76.89,50,0,16.91,BR,1635180571
36,Busselton,-33.65,115.3333,42.04,70,67,5.1,AU,1635180571
37,Taylor,32.3001,-99.8337,83.93,56,1,4.0,US,1635180571
38,Oxford,51.7522,-1.256,57.04,79,20,9.22,GB,1635180571
39,Iqaluit,63.7506,-68.5145,31.73,74,75,5.75,CA,1635180572
40,Launceston,-41.45,147.1667,47.84,81,90,11.5,AU,1635180546
41,Marawi,7.9986,124.2928,68.65,91,93,1.05,PH,1635180572
42,Bhatkal,13.9667,74.5667,78.66,85,37,6.38,IN,1635180572
43,Tsimmerbude,54.675,20.1347,46.45,61,75,13.87,RU,1635180572
44,Bathsheba,13.2167,-59.5167,86.61,66,75,28.77,BB,1635180573
45,Ust-Tsilma,65.441,52.1498,18.5,98,92,1.9,RU,1635180573
46,Bambous Virieux,-20.3428,57.7575,75.45,73,40,14.97,MU,1635180573
47,Bredasdorp,-34.5322,20.0403,63.72,68,49,13.8,ZA,1635180573
48,Maple Creek,49.9168,-109.4848,46.89,66,100,10.36,CA,1635180574
49,Nikolskoye,59.7035,30.7861,47.88,83,100,11.48,RU,1635180574
50,Codrington,-38.2667,141.9667,39.31,92,1,7.43,AU,1635180574
51,Yellowknife,62.456,-114.3525,39.42,99,90,11.5,CA,1635180287
52,Saldanha,-33.0117,17.9442,77.05,80,1,14.05,ZA,1635180574
53,Dolgorukovo,52.3195,38.3453,32.94,61,44,5.3,RU,1635180575
54,Catalina,32.5056,-110.9211,80.47,36,0,1.01,US,1635180575
55,Qaanaaq,77.484,-69.3632,-2.51,58,14,12.37,GL,1635180575
56,Linqing,36.8456,115.7117,54.66,68,66,7.81,CN,1635180575
57,Lebu,-37.6167,-73.65,57.61,72,27,11.92,CL,1635180492
58,Albany,42.6001,-73.9662,62.58,93,100,1.01,US,1635180497
59,Madang,-5.2246,145.7966,76.84,87,94,2.04,PG,1635180576
60,Hobart,-42.8794,147.3294,49.86,81,90,6.91,AU,1635180576
61,Mount Gambier,-37.8333,140.7667,39.11,87,7,3.44,AU,1635180576
62,Muros,42.7762,-9.0603,64.15,83,20,8.72,ES,1635180576
63,Itarantim,-15.6597,-40.0656,78.55,83,97,5.23,BR,1635180577
64,Kirakira,-10.4544,161.9205,78.15,85,38,6.76,SB,1635180577
65,Celestún,20.8667,-90.4,88.38,62,25,3.76,MX,1635180577
66,Huron,41.1501,-82.5499,60.93,95,100,12.33,US,1635180307
67,Sembakung,3.8167,117.25,80.53,98,19,1.21,ID,1635180577
68,Amapá,1.0,-52.0,92.98,41,43,7.58,BR,1635180578
69,Jamestown,42.097,-79.2353,69.08,66,75,5.99,US,1635180284
70,Coquimbo,-29.9533,-71.3436,64.13,67,40,11.5,CL,1635180578
71,Levelland,33.5873,-102.378,74.19,23,2,8.5,US,1635180578
72,Paithan,19.4833,75.3833,76.14,51,97,8.55,IN,1635180578
73,Castro,-24.7911,-50.0119,68.0,68,89,3.11,BR,1635180579
74,Longyearbyen,78.2186,15.6401,21.04,63,40,25.32,SJ,1635180579
75,Hermanus,-34.4187,19.2345,61.99,71,71,17.9,ZA,1635180579
76,Vigrestad,58.5667,5.7,52.0,88,43,12.3,NO,1635180580
77,San Cristobal,7.7669,-72.225,78.98,44,72,4.21,VE,1635180580
78,Severo-Kuril'sk,50.6789,156.125,38.97,83,23,11.81,RU,1635180580
79,Mabaruma,8.2,-59.7833,79.56,94,89,6.44,GY,1635180580
80,Alofi,-19.0595,-169.9187,66.09,94,40,3.44,NU,1635180581
81,Salamanca,40.8333,-6.0,64.18,51,32,6.38,ES,1635180581
82,Padang,-0.9492,100.3543,77.05,88,100,3.04,ID,1635180581
83,Muisne,0.6,-80.0333,82.51,83,100,11.27,EC,1635180581
84,Kaputa,-8.4689,29.6619,78.3,60,64,7.36,ZM,1635180582
85,Sitka,57.0531,-135.33,40.89,75,75,0.0,US,1635180582
86,Souillac,-20.5167,57.5167,75.58,73,40,14.97,MU,1635180582
87,Tuatapere,-46.1333,167.6833,51.8,97,79,1.25,NZ,1635180582
88,Klaksvík,62.2266,-6.589,45.52,80,93,14.74,FO,1635180582
89,Hambantota,6.1241,81.1185,78.49,86,100,15.03,LK,1635180583
90,Hamilton,39.1834,-84.5333,65.41,87,90,1.99,US,1635180583
91,Cidreira,-30.1811,-50.2056,74.91,47,0,4.99,BR,1635180583
92,Hilo,19.7297,-155.09,71.8,88,90,5.75,US,1635180575
93,Polokwane,-23.9045,29.4688,61.65,67,40,9.22,ZA,1635180583
94,São João da Barra,-21.6403,-41.0511,75.29,75,85,11.79,BR,1635180584
95,Airai,-8.9266,125.4092,61.77,91,69,0.27,TL,1635180584
96,Nelson Bay,-32.7167,152.15,63.0,74,75,8.9,AU,1635180584
97,Avarua,-21.2078,-159.775,73.45,68,75,6.91,CK,1635180584
98,Guozhen,34.3659,107.359,54.46,95,100,5.03,CN,1635180585
99,Ilo,-17.6394,-71.3375,63.46,77,40,11.5,PE,1635180585
100,Faanui,-16.4833,-151.75,78.42,77,98,4.83,PF,1635180585
101,Hofn,64.2539,-15.2082,39.22,81,20,3.44,IS,1635180585
102,Clyde River,70.4692,-68.5914,23.23,68,75,4.61,CA,1635180586
103,New Norfolk,-42.7826,147.0587,49.5,98,44,2.57,AU,1635180586
104,Semme,46.1963,1.5007,54.01,92,100,4.32,FR,1635180586
105,Shimanovsk,52.0,127.7,36.19,80,10,0.92,RU,1635180586
106,Puerto Ayora,-0.7393,-90.3518,75.16,88,59,1.01,EC,1635180584
107,Ahipara,-35.1667,173.1667,56.01,91,1,1.74,NZ,1635180587
108,Arawa,-6.2132,155.5367,75.63,90,53,3.0,PG,1635180587
109,Dikson,73.5069,80.5464,12.92,88,100,19.64,RU,1635180587
110,Bull Savanna,17.8868,-77.5902,85.01,60,51,13.13,JM,1635180587
111,San Patricio,28.017,-97.5169,87.69,53,6,6.02,US,1635180588
112,Nzega,-2.479,29.5564,58.17,91,100,4.56,RW,1635180588
113,Barrow,71.2906,-156.7887,26.62,86,90,8.05,US,1635180588
114,Passau,48.5712,13.449,49.06,82,100,0.78,DE,1635180588
115,Khatanga,71.9667,102.5,6.22,96,100,9.75,RU,1635180589
116,Tsagan Aman,47.5639,46.7218,40.44,47,95,10.36,RU,1635180589
117,Tasiilaq,65.6145,-37.6368,31.06,80,100,22.48,GL,1635180589
118,Kanniyākumāri,8.0833,77.5667,79.97,83,100,9.13,IN,1635180590
119,Mar del Plata,-38.0023,-57.5575,69.82,41,20,15.01,AR,1635180481
120,Pevek,69.7008,170.3133,-1.66,98,100,4.41,RU,1635180590
121,Kharp,66.8014,65.8081,15.3,91,77,6.44,RU,1635180590
122,Douala,4.0483,9.7043,76.96,87,100,5.21,CM,1635180590
123,Kaitangata,-46.2817,169.8464,51.21,90,98,5.88,NZ,1635180591
124,Kalmunai,7.4167,81.8167,80.01,78,98,2.04,LK,1635180591
125,Esim,4.8699,-2.2405,80.56,81,55,10.25,GH,1635180591
126,Ketchikan,55.3422,-131.6461,43.27,81,75,5.75,US,1635180592
127,Haines Junction,60.7522,-137.5108,8.55,85,100,1.14,CA,1635180592
128,Chapais,49.7834,-74.8492,35.38,60,79,5.66,CA,1635180592
129,Angoche,-16.2325,39.9086,79.2,86,4,11.25,MZ,1635180592
130,Mataura,-46.1927,168.8643,49.87,98,99,2.62,NZ,1635180593
131,Mayumba,-3.432,10.6554,77.2,89,97,9.06,GA,1635180593
132,Gilbués,-9.8317,-45.3439,95.99,31,60,12.44,BR,1635180593
133,Três Lagoas,-20.7511,-51.6783,78.71,62,86,2.66,BR,1635180594
134,Rawson,-43.3002,-65.1023,66.11,24,25,18.28,AR,1635180594
135,Russell,32.3502,-85.1999,78.08,72,75,8.05,US,1635180327
136,Huarmey,-10.0681,-78.1522,69.62,69,21,12.21,PE,1635180594
137,Manggar,-2.8833,108.2667,80.55,77,32,2.24,ID,1635180594
138,Martapura,-3.4167,114.85,77.09,94,90,1.14,ID,1635180594
139,Carnarvon,-24.8667,113.6333,66.27,63,90,16.11,AU,1635180595
140,Ossora,59.2353,163.0719,28.06,79,100,9.33,RU,1635180595
141,Chalāla,21.4167,71.1667,78.03,54,62,6.26,IN,1635180595
142,Port Lincoln,-34.7333,135.8667,57.87,78,8,14.14,AU,1635180596
143,Karpinsk,59.7654,60.0085,26.69,75,88,8.34,RU,1635180596
144,Champerico,14.3,-91.9167,91.76,74,7,3.42,GT,1635180596
145,Saint-Joseph,-21.3667,55.6167,73.78,79,33,12.95,RE,1635180596
146,Karratha,-20.7377,116.8463,78.6,41,7,13.47,AU,1635180596
147,Marsh Harbour,26.5412,-77.0636,81.48,74,99,14.67,BS,1635180597
148,Atuona,-9.8,-139.0333,77.13,77,72,15.93,PF,1635180597
149,Corozal,9.3151,-75.2928,85.35,71,67,5.91,CO,1635180597
150,Shepsi,44.0361,39.1489,47.95,69,3,12.28,RU,1635180597
151,Linxia Chengguanzhen,35.6003,103.2064,37.99,97,100,3.29,CN,1635180598
152,Saint Paul Harbor,57.79,-152.4072,38.71,87,40,4.61,US,1635180598
153,Genhe,50.7833,121.5167,29.93,92,92,3.0,CN,1635180598
154,Bethel,41.3712,-73.414,71.02,85,75,8.05,US,1635180598
155,Nome,64.5011,-165.4064,24.87,80,75,14.97,US,1635180540
156,Humaitá,-7.5061,-63.0208,85.69,75,100,1.66,BR,1635180599
157,Parga,39.2831,20.3964,66.18,58,100,8.55,GR,1635180599
158,Egvekinot,66.3167,-179.1667,0.25,88,48,7.9,RU,1635180599
159,Eskil,38.4017,33.4131,48.65,58,98,14.05,TR,1635180599
160,Zlobin,45.2924,14.6541,47.5,59,0,9.22,HR,1635180600
161,Kamina,-8.7386,24.9906,68.29,88,98,0.56,CD,1635180600
162,Kenora,49.8167,-94.4337,40.98,75,40,10.36,CA,1635180321
163,Kieta,-6.2167,155.6333,77.86,83,41,2.59,PG,1635180601
164,Lagoa,39.05,-27.9833,66.81,72,75,7.96,PT,1635180601
165,Sola,-13.8833,167.55,80.67,72,19,13.13,VU,1635180602
166,Arrondissement d'Arcachon,44.5875,-1.0519,61.12,88,90,5.75,FR,1635180603
167,Mezhdurechenskiy,59.6,65.9333,33.31,89,100,6.98,RU,1635180603
168,Tommot,58.9564,126.2925,35.15,96,99,7.9,RU,1635180604
169,Tiksi,71.6872,128.8694,2.03,96,100,4.25,RU,1635180605
170,Perivoli,39.4206,20.0147,65.75,52,100,13.29,GR,1635180605
171,Ribeira Grande,38.5167,-28.7,70.2,73,75,10.36,PT,1635180606
172,Sur,22.5667,59.5289,81.99,65,0,3.74,OM,1635180607
173,Iskateley,67.6803,53.1512,21.25,83,75,11.97,RU,1635180607
174,Sokoni,-6.4333,39.55,79.5,80,26,11.56,TZ,1635180608
175,Hella,67.2,14.4333,43.88,97,75,13.8,NO,1635180608
176,Tuktoyaktuk,69.4541,-133.0374,28.4,100,90,8.05,CA,1635180609
177,Gijang,35.2442,129.2139,51.53,57,0,5.53,KR,1635180610
178,Aruküla,59.3644,25.0772,48.51,80,90,12.66,EE,1635180610
179,Marang,5.2056,103.2059,80.51,85,71,4.43,MY,1635180610
180,Marzuq,14.4,46.4667,74.01,55,1,6.11,YE,1635180611
181,Vila Velha,-20.3297,-40.2925,76.95,73,90,16.11,BR,1635180587
182,San Andrés,12.5847,-81.7006,87.82,74,20,9.22,CO,1635180611
183,Ják,47.1425,16.5815,48.99,63,66,5.75,HU,1635180611
184,Nioro,13.35,-15.75,83.01,73,96,3.38,GM,1635180612
185,Nyurba,63.2842,118.3319,33.12,97,100,7.65,RU,1635180612
186,Port Elizabeth,-33.918,25.5701,67.1,72,0,12.66,ZA,1635180612
187,Manokwari,-0.8667,134.0833,78.76,74,97,3.0,ID,1635180612
188,Bang Saphan,11.2126,99.5117,76.6,90,42,4.72,TH,1635180613
189,Manyana,-23.4,21.7167,82.71,7,1,10.63,BW,1635180613
190,Saskylakh,71.9167,114.0833,-15.61,100,99,1.72,RU,1635180613
191,Nago,26.5881,127.9761,73.56,68,54,14.58,JP,1635180613
192,Siilinjärvi,63.0833,27.6667,41.02,100,90,3.44,FI,1635180614
193,Plainview,40.7765,-73.4673,72.88,76,20,1.01,US,1635180614
194,Talakan,50.3167,130.3667,33.3,88,0,3.74,RU,1635180614
195,Lüderitz,-26.6481,15.1594,62.01,73,10,6.08,NA,1635180614
196,Visby,57.6409,18.296,48.85,87,75,12.66,SE,1635180615
197,Tateyama,34.9833,139.8667,57.22,96,100,26.53,JP,1635180615
198,Dunedin,-45.8742,170.5036,55.8,95,92,5.01,NZ,1635180615
199,Poum,-20.2333,164.0167,74.07,73,10,16.04,NC,1635180615
200,Beira,-19.8436,34.8389,77.09,83,20,13.8,MZ,1635180616
201,Tartagal,-22.5164,-63.8013,91.54,10,0,9.26,AR,1635180616
202,Eureka,40.8021,-124.1637,53.26,95,40,4.0,US,1635180616
203,Belyy Yar,53.6039,91.3903,49.89,62,0,8.95,RU,1635180616
204,St. George's,12.0564,-61.7485,87.48,70,20,26.46,GD,1635180602
205,George Town,5.4112,100.3354,82.33,85,40,0.0,MY,1635180599
206,Tautira,-17.7333,-149.15,75.22,79,86,4.21,PF,1635180617
207,Saint George,37.1041,-113.5841,73.87,32,1,3.0,US,1635180617
208,Hong Kong,22.2855,114.1577,75.33,81,97,1.01,HK,1635180476
209,Bluff,-46.6,168.3333,51.67,93,98,7.4,NZ,1635180617
210,Thunder Bay,48.4001,-89.3168,44.29,73,40,9.22,CA,1635180373
211,Goundam,16.4145,-3.6708,101.12,17,25,8.01,ML,1635180617
212,Saint-Philippe,-21.3585,55.7679,74.79,83,31,14.03,RE,1635180618
213,Upernavik,72.7868,-56.1549,14.97,63,16,6.42,GL,1635180618
214,Brae,60.3964,-1.353,48.11,85,75,17.96,GB,1635180618
215,Reconquista,-29.15,-59.65,88.9,19,0,9.6,AR,1635180612
216,Garoowe,8.4054,48.4845,78.69,63,70,17.72,SO,1635180618
217,Ancud,-41.8697,-73.8203,60.42,86,100,12.33,CL,1635180619
218,San Felipe,10.3399,-68.7425,88.11,54,36,8.28,VE,1635180619
219,Teya,60.3778,92.6267,38.26,97,100,13.35,RU,1635180619
220,Talnakh,69.4865,88.3972,19.6,96,100,6.15,RU,1635180619
221,Bakaly,55.1789,53.8028,31.71,72,67,14.2,RU,1635180620
222,Ballsh,40.5989,19.7347,57.54,57,25,7.63,AL,1635180620
223,Porto Empedocle,37.2934,13.5264,67.32,75,19,1.48,IT,1635180620
224,Ihosy,-22.4,46.1167,74.91,74,8,12.33,MG,1635180620
225,Lithakia,37.7167,20.8333,62.58,83,100,14.99,GR,1635180621
226,Rāwah,34.4816,41.9093,73.09,27,0,4.68,IQ,1635180621
227,Yar-Sale,66.8333,70.8333,20.34,88,96,7.02,RU,1635180621
228,Geraldton,-28.7667,114.6,54.01,94,90,6.91,AU,1635180621
229,Jalu,29.0331,21.5482,82.11,25,47,12.82,LY,1635180622
230,Thompson,55.7435,-97.8558,32.16,93,75,3.44,CA,1635180622
231,Taiobeiras,-15.8078,-42.2331,78.04,67,100,5.1,BR,1635180428
232,Kampong Chhnang,12.1667,104.55,75.02,91,99,4.56,KH,1635180622
233,Buraidah,26.326,43.975,86.45,20,0,12.53,SA,1635180379
234,Mattru,7.6244,-11.8332,75.96,94,93,3.42,SL,1635180622
235,Naze,28.3667,129.4833,66.96,66,36,12.21,JP,1635180623
236,Hobyo,5.3505,48.5268,81.1,74,65,10.65,SO,1635180623
237,Kampot,10.6167,104.1833,82.45,85,100,6.53,KH,1635180623
238,Orašac,44.6289,16.0711,40.55,90,80,1.7,BA,1635180623
239,Palmer,42.1584,-72.3287,55.92,87,90,1.01,US,1635180624
240,Wad Medani,14.4012,33.5199,97.03,18,53,4.85,SD,1635180624
241,Lisala,2.15,21.5167,74.32,86,86,2.48,CD,1635180624
242,San Policarpo,12.1791,125.5072,79.92,83,69,6.71,PH,1635180624
243,Lebyazh'ye,55.2689,66.4947,39.07,90,100,3.49,RU,1635180625
244,Colwyn Bay,53.2948,-3.7267,55.81,82,26,5.99,GB,1635180625
245,Orlik,52.5178,99.825,28.15,75,60,5.46,RU,1635180625
246,Galesong,-5.3166,119.3661,77.02,75,100,4.09,ID,1635180625
247,Erenhot,43.6475,111.9767,41.13,40,0,9.71,CN,1635180626
248,Bhisho,-32.8472,27.4422,58.37,79,43,11.72,ZA,1635180626
249,Berlevåg,70.8578,29.0864,24.75,80,20,8.05,NO,1635180626
250,Kyzyl-Suu,42.3414,78.0056,38.23,45,0,8.59,KG,1635180626
251,Katsuura,35.1333,140.3,57.31,93,100,26.4,JP,1635180627
252,Opuwo,-18.0607,13.84,84.16,14,6,16.8,NA,1635180627
253,Vostok,46.4856,135.8833,32.59,77,15,5.06,RU,1635180626
254,Dandong,40.1292,124.3947,51.24,80,84,4.18,CN,1635180425
255,San Vicente,-26.6167,-54.1333,79.45,34,0,5.28,AR,1635180627
256,Belz,47.6751,-3.168,61.21,86,7,1.01,FR,1635180627
257,Lichuan,30.3,108.85,50.65,84,100,1.83,CN,1635180628
258,Karlstad,59.3793,13.5036,50.56,93,90,12.66,SE,1635180628
259,Bengkulu,-3.8004,102.2655,75.11,91,100,3.65,ID,1635180559
260,Coyhaique,-45.5752,-72.0662,48.81,71,90,10.36,CL,1635180384
261,Znamenskoye,57.1281,73.8282,40.1,79,100,4.81,RU,1635180628
262,Mahébourg,-20.4081,57.7,75.49,73,40,14.97,MU,1635180628
263,San Quintín,30.4833,-115.95,65.86,72,82,9.69,MX,1635180629
264,Tonantins,-2.8731,-67.8022,85.05,65,99,7.2,BR,1635180629
265,Lavrentiya,65.5833,-171.0,17.87,80,100,10.0,RU,1635180629
266,Matadi,-5.8167,13.45,85.6,60,100,7.52,CD,1635180629
267,Manicoré,-5.8092,-61.3003,93.76,46,66,5.39,BR,1635180629
268,The Pas,53.8251,-101.2541,39.22,81,40,18.41,CA,1635180630
269,Asău,46.4333,26.4,42.76,66,0,1.57,RO,1635180630
270,Lexington,37.9887,-84.4777,65.41,75,75,1.01,US,1635180377
271,Belmonte,-15.8631,-38.8828,82.4,73,89,8.9,BR,1635180630
272,Katobu,-4.9408,122.5276,75.74,91,90,4.29,ID,1635180630
273,Atyrau,47.1167,51.8833,44.62,61,40,15.66,KZ,1635180631
274,Amahai,-3.3333,128.9167,78.3,85,72,3.65,ID,1635180631
275,Hamada,34.8833,132.0833,51.01,80,1,4.32,JP,1635180631
276,Uvat,59.1433,68.8953,36.34,92,100,6.58,RU,1635180631
277,Neryungri,56.6709,124.6491,23.85,94,100,2.37,RU,1635180632
278,Salmo,49.1999,-117.2689,47.79,97,100,3.11,CA,1635180632
279,Wilhelmshaven,53.5167,8.1333,53.58,92,96,10.96,DE,1635180632
280,Gold Coast,-28.0,153.4333,71.04,79,100,1.01,AU,1635180376
281,Itarema,-2.9248,-39.9167,88.57,51,29,19.51,BR,1635180632
282,Novominskaya,46.3163,38.9586,41.31,45,55,6.76,RU,1635180633
283,Dharān,26.8125,87.2835,67.32,84,0,5.59,NP,1635180633
284,Ilulissat,69.2167,-51.1,1.72,79,0,3.91,GL,1635180633
285,Chernyshevskiy,63.0128,112.4714,27.82,94,81,8.39,RU,1635180633
286,Bambanglipuro,-7.95,110.2833,78.35,77,60,1.88,ID,1635180634
287,Urucará,-2.5364,-57.76,98.98,34,99,4.0,BR,1635180634
288,Lázaro Cárdenas,17.9583,-102.2,76.55,88,100,7.43,MX,1635180634
289,Mackenzie,55.2999,-123.1698,37.62,100,90,3.44,CA,1635180564
290,Ponta do Sol,32.6667,-17.1,74.12,62,88,4.83,PT,1635180634
291,Rupert,42.6191,-113.6772,46.35,87,90,8.05,US,1635180635
292,Derzhavīnsk,51.1,66.3167,50.74,44,100,13.89,KZ,1635180635
293,Palekastro,35.2,26.25,65.75,66,82,23.53,GR,1635180635
294,Amalfi,6.9102,-75.0776,73.31,69,68,3.09,CO,1635180635
295,Cherskiy,68.75,161.3,-15.79,98,97,1.5,RU,1635180636
296,Ust-Nera,64.5667,143.2,5.86,99,100,3.04,RU,1635180476
297,Portland,45.5234,-122.6762,57.72,64,90,5.01,US,1635180055
298,Norman Wells,65.282,-126.8329,23.04,93,90,0.0,CA,1635180406
299,Krasnosel'kup,65.7,82.4667,15.75,94,97,10.22,RU,1635180636
300,East London,-33.0153,27.9116,65.48,75,64,20.36,ZA,1635180636
301,Port Saint Lucie,27.2939,-80.3503,84.22,78,100,8.99,US,1635180636
302,Mercedes,-34.6515,-59.4307,86.86,14,8,16.46,AR,1635180637
303,Adrar,20.5022,-10.0711,97.02,14,17,3.56,MR,1635180637
304,Ejido,8.5514,-71.2375,77.18,81,41,5.08,VE,1635180637
305,Mareeba,-17.0,145.4333,67.44,95,89,2.57,AU,1635180637
306,Manga,11.6636,-1.0731,90.81,35,55,5.21,BF,1635180638
307,Sakakah,29.9697,40.2064,80.17,21,0,8.99,SA,1635180638
308,Bushenyi,-0.5853,30.2114,62.28,86,68,2.3,UG,1635180638
309,La Ronge,55.1001,-105.2842,39.45,75,90,18.41,CA,1635180638
310,Sisimiut,66.9395,-53.6735,19.15,73,4,10.56,GL,1635180639
311,Fortuna,40.5982,-124.1573,52.99,74,75,7.0,US,1635180639
312,Huilong,31.8111,121.655,66.99,67,62,3.51,CN,1635180639
313,Jumla,29.2747,82.1838,45.0,86,5,3.33,NP,1635180639
314,Garhwa,24.1833,83.8167,74.01,60,91,1.34,IN,1635180640
315,Salekhard,66.53,66.6019,12.96,94,87,3.6,RU,1635180640
316,Cabedelo,-6.9811,-34.8339,86.67,62,12,16.6,BR,1635180640
317,Novikovo,51.1537,37.8879,34.18,56,44,3.06,RU,1635180640
318,Kāsaragod,12.5,75.0,79.86,91,67,3.6,IN,1635180641
319,Araruama,-22.8728,-42.3431,75.25,78,98,9.44,BR,1635180641
320,Greencastle,39.6445,-86.8647,53.33,96,90,1.01,US,1635180478
321,Rosetta,31.4044,30.4164,76.82,65,0,12.15,EG,1635180641
322,Shishou,29.7226,112.419,59.52,62,47,3.22,CN,1635180641
323,Marsá Maţrūḩ,31.3525,27.2453,73.6,68,40,10.36,EG,1635180642
324,Honningsvåg,70.9821,25.9704,35.17,69,18,20.78,NO,1635180642
325,Pisco,-13.7,-76.2167,65.01,77,15,11.5,PE,1635180642
326,Doka,13.5167,35.7667,86.88,27,13,2.73,SD,1635180643
327,Buala,-8.145,159.5921,78.82,81,17,2.53,SB,1635180643
328,Stephenville,32.2207,-98.2023,79.68,69,1,3.44,US,1635180643
329,Djibo,14.1022,-1.6306,99.36,18,38,8.5,BF,1635180643
330,Sørland,67.667,12.6934,48.06,95,100,10.4,NO,1635180644
331,Umluj,25.0213,37.2685,80.04,62,0,7.16,SA,1635180644
332,Mustla,58.2343,25.8584,41.02,75,67,11.16,EE,1635180644
333,Sarankhola,22.3082,89.7897,72.37,82,3,1.39,BD,1635180644
334,Zagora,30.3484,-5.8365,83.79,15,67,14.79,MA,1635180645
335,Krylovskaya,46.3194,39.9711,34.66,51,72,6.53,RU,1635180645
336,Eatonton,33.3268,-83.3885,76.77,60,64,5.28,US,1635180645
337,Wellington,-41.2866,174.7756,59.05,89,45,3.0,NZ,1635180645
338,Baruun-Urt,46.6806,113.2792,35.35,58,15,7.4,MN,1635180646
339,Dolores,-36.3132,-57.6792,75.2,37,45,13.51,AR,1635180646
340,Anadyr,64.75,177.4833,-12.08,96,82,9.37,RU,1635180646
341,Namatanai,-3.6667,152.4333,78.8,79,20,3.85,PG,1635180646
342,Jales,-20.2689,-50.5458,83.64,47,87,5.5,BR,1635180647
343,Fairbanks,64.8378,-147.7164,27.23,91,90,3.44,US,1635180647
344,Sistranda,63.7256,8.834,49.89,85,100,10.83,NO,1635180647
345,Nchelenge,-9.3451,28.734,71.92,83,100,18.25,ZM,1635180647
346,Boa Vista,2.8197,-60.6733,85.98,62,75,6.91,BR,1635180648
347,Saint-Augustin,51.226,-58.6502,44.73,48,55,9.15,CA,1635180648
348,Letlhakane,-21.4167,25.5833,78.96,46,65,6.76,BW,1635180648
349,Kumba,4.6363,9.4469,75.9,88,100,2.19,CM,1635180648
350,Florianópolis,-27.6146,-48.5012,75.36,55,0,14.97,BR,1635180461
351,Muroto-misakicho,33.2833,134.15,61.88,72,0,7.11,JP,1635180649
352,Ayagoz,47.9714,80.4392,39.96,46,17,2.57,KZ,1635180649
353,Sumbe,-11.2061,13.8437,76.62,75,48,8.72,AO,1635180649
354,Hadejia,12.4498,10.0444,92.82,18,29,8.41,NG,1635180649
355,Mozarlândia,-14.7447,-50.5706,87.96,47,100,1.1,BR,1635180650
356,Poshekhon'ye,58.4993,39.1353,37.17,94,100,16.64,RU,1635180650
357,Diamantino,-14.4086,-56.4461,79.57,67,100,2.59,BR,1635180552
358,Alegrete,-29.7831,-55.7919,78.24,41,0,9.98,BR,1635180650
359,Cairns,-16.9167,145.7667,72.07,95,75,0.0,AU,1635180650
360,Provideniya,64.3833,-173.3,15.64,86,68,7.38,RU,1635180651
361,Shekhupura,31.7131,73.9783,71.65,54,0,2.51,PK,1635180545
362,Tilichiki,60.4667,166.1,19.35,98,100,5.32,RU,1635180651
363,Abhā,18.2164,42.5053,67.82,72,40,9.22,SA,1635180651
364,Praia,14.9215,-23.5087,82.94,69,75,23.02,CV,1635180651
365,Salinópolis,-0.6136,-47.3561,86.61,66,97,14.07,BR,1635180652
366,Lichinga,-13.3128,35.2406,75.29,46,75,11.5,MZ,1635180652
367,Lufilufi,-13.8745,-171.5986,71.38,75,100,11.23,WS,1635180652
368,Narsaq,60.9167,-46.05,31.3,44,16,2.3,GL,1635180652
369,Jiayuguan City,39.8167,98.3,44.29,39,99,2.53,CN,1635180653
370,Peru,40.7537,-86.0689,55.58,93,90,8.05,US,1635180455
371,Liverpool,53.4106,-2.9779,55.69,76,40,1.01,GB,1635180580
372,Felipe Carrillo Puerto,19.5833,-88.05,91.38,54,27,5.03,MX,1635180653
373,Warmbad,-28.45,18.7333,77.94,16,3,10.76,NA,1635180653
374,Nizhniy Tsasuchey,50.5167,115.1333,36.7,64,41,17.31,RU,1635180653
375,Östersund,63.1792,14.6357,45.05,81,0,9.22,SE,1635180654
376,Hasaki,35.7333,140.8333,59.4,84,100,27.58,JP,1635180654
377,Mitsamiouli,-11.3847,43.2844,80.89,78,20,26.46,KM,1635180654
378,Atikokan,48.7555,-91.6216,41.4,57,14,5.44,CA,1635180654
379,Pacific Grove,36.6177,-121.9166,59.11,91,90,1.99,US,1635180655
380,Gondanglegi,-7.7479,112.0132,76.6,80,70,9.62,ID,1635180655
381,Petatlán,17.5167,-101.2667,78.55,90,100,3.31,MX,1635180655
382,Lodwar,3.1191,35.5973,89.62,35,100,14.61,KE,1635180655
383,Kiryat Gat,31.61,34.7642,72.28,100,1,8.52,IL,1635180656
384,Cayenne,4.9333,-52.3333,77.09,91,75,0.0,GF,1635180656
385,Kahului,20.8947,-156.47,75.85,86,20,9.22,US,1635180404
386,Mbanza-Ngungu,-5.25,14.8667,74.53,77,100,2.26,CD,1635180656
387,Léo,11.1,-2.1,89.83,40,60,6.15,BF,1635180656
388,Dniprorudne,47.3817,34.9765,36.23,46,2,8.21,UA,1635180656
389,Carauari,-4.8828,-66.8958,82.54,86,100,2.53,BR,1635180657
390,Samarai,-10.6167,150.6667,80.94,80,83,9.28,PG,1635180657
391,Vardø,70.3705,31.1107,33.78,75,75,11.5,NO,1635180657
392,Kadambūr,8.9833,77.8667,77.85,85,100,7.7,IN,1635180657
393,Oranjestad,12.524,-70.027,87.75,62,40,21.85,AW,1635180658
394,Lompoc,34.6391,-120.4579,61.12,89,90,8.05,US,1635180389
395,Abu Kamal,34.4506,40.9171,74.66,25,0,7.74,SY,1635180658
396,Pochutla,15.7432,-96.4661,87.82,60,64,5.28,MX,1635180658
397,Mwinilunga,-11.7358,24.4293,68.59,82,61,10.63,ZM,1635180658
398,Ouadda,8.0777,22.4007,76.01,76,98,1.95,CF,1635180659
399,Salalah,17.0151,54.0924,78.89,78,0,4.61,OM,1635180563
400,Moerai,-22.4333,-151.3333,72.43,74,47,16.2,PF,1635180659
401,Jiuquan,39.7432,98.5174,46.2,40,97,1.92,CN,1635180659
402,Donauwörth,48.7,10.8,54.25,78,100,2.68,DE,1635180659
403,Santa Vitória do Palmar,-33.5189,-53.3681,80.17,38,0,18.25,BR,1635180660
404,Xiongyue,40.1774,122.1228,55.2,80,97,12.37,CN,1635180660
405,Isangel,-19.55,169.2667,74.34,83,36,11.23,VU,1635180660
406,Torbay,47.6666,-52.7314,44.76,85,90,28.77,CA,1635180660
407,Bitung,1.4451,125.1824,76.05,78,57,1.99,ID,1635180661
408,Husavik,66.0449,-17.3389,35.51,81,42,8.5,IS,1635180661
409,Dingle,10.9995,122.6711,75.36,90,100,4.09,PH,1635180662
410,Nuuk,64.1835,-51.7216,23.2,49,0,15.59,GL,1635180663
411,Bud,39.447,-86.1758,54.41,95,98,13.87,US,1635180663
412,Pokaran,26.9167,71.9167,78.87,37,8,10.69,IN,1635180663
413,Moyale,3.5167,39.0584,67.93,79,99,3.29,KE,1635180664
414,Muli,2.9167,73.5667,82.87,76,83,14.92,MV,1635180664
415,Yelizovo,53.1873,158.3805,30.34,69,40,2.24,RU,1635180664
416,Port Hardy,50.6996,-127.4199,53.6,81,75,23.02,CA,1635180664
417,Igrim,63.1906,64.4162,28.62,71,100,4.23,RU,1635180665
418,Biggar,55.6167,-3.5167,48.09,86,21,10.22,GB,1635180665
419,Puerto Escondido,15.85,-97.0667,86.83,58,1,2.3,MX,1635180665
420,Gătaia,45.4311,21.43,53.71,53,0,2.71,RO,1635180665
421,Burley,42.5357,-113.7928,46.36,87,90,8.05,US,1635180666
422,Gornyak,50.9942,81.4661,43.47,53,30,6.58,RU,1635180666
423,Port Hedland,-20.3167,118.5667,73.45,83,0,9.22,AU,1635180666
424,Saint Anthony,45.0205,-93.218,50.11,61,1,1.99,US,1635180666
425,Vanavara,60.34,102.2797,32.58,99,100,7.07,RU,1635180667
426,Mossamedes,-15.1961,12.1522,67.24,75,6,13.0,AO,1635180667
427,Borogontsy,62.6683,131.1683,27.77,98,100,0.69,RU,1635180667
428,Kumul,42.8,93.45,48.54,33,0,3.38,CN,1635180667
429,Bilibino,68.0546,166.4372,-18.89,95,81,3.09,RU,1635180668
430,Lata,40.1629,-8.3327,67.35,62,66,5.84,PT,1635180668
431,Ulladulla,-35.35,150.4667,56.3,78,9,4.76,AU,1635180668
432,Xiaoweizhai,26.1903,107.5125,55.56,77,96,2.01,CN,1635180668
433,Presidente Médici,-11.1753,-61.9014,79.9,72,99,1.66,BR,1635180669
434,Road Town,18.4167,-64.6167,86.09,74,40,9.22,VG,1635180669
435,Auki,-8.7676,160.7034,76.42,89,68,3.89,SB,1635180669
436,Balkanabat,39.5108,54.3671,61.0,68,42,11.23,TM,1635180669
437,Ekaterinburg,56.8575,60.6125,35.19,87,40,8.95,RU,1635180608
438,Chiplūn,17.5333,73.5167,72.99,91,3,1.43,IN,1635180670
439,Yelovo,57.0538,54.9207,29.19,81,46,10.83,RU,1635180670
440,Salym,60.0625,71.4789,36.46,97,100,7.38,RU,1635180670
441,Kysyl-Syr,63.8986,122.7617,31.1,99,100,3.27,RU,1635180671
442,Guerrero Negro,27.9769,-114.0611,69.42,67,18,12.68,MX,1635180671
443,Lamu,-2.2717,40.902,80.82,83,86,7.96,KE,1635180671
444,Praia da Vitória,38.7333,-27.0667,71.76,83,20,7.96,PT,1635180671
445,Bandarbeyla,9.4942,50.8122,78.69,74,15,7.27,SO,1635180672
446,Mweka,-4.85,21.5667,69.46,98,95,1.34,CD,1635180672
447,Ocean City,39.2776,-74.5746,79.25,78,100,8.01,US,1635180672
448,Masvingo,-20.0637,30.8277,62.83,83,56,11.14,ZW,1635180672
449,Bereda,43.2686,-7.5406,60.42,85,78,2.59,ES,1635180673
450,Māngrol,21.1167,70.1167,79.23,60,2,13.09,IN,1635180673
451,Tigil',57.8,158.6667,32.22,89,100,20.31,RU,1635180673
452,Santo Antônio de Jesus,-12.9689,-39.2614,86.72,55,95,9.26,BR,1635180534
453,Llangefni,53.2556,-4.3106,55.72,69,20,16.11,GB,1635180673
454,Tamparan,7.8792,124.3331,69.42,93,95,1.34,PH,1635180674
455,Filingué,14.3521,3.3168,98.76,10,38,4.03,NE,1635180674
456,Cockburn Town,21.4612,-71.1419,85.96,66,40,11.5,TC,1635180475
457,Berdigestyakh,62.0989,126.6992,32.29,99,100,3.91,RU,1635180674
458,Inongo,-1.95,18.2667,72.27,93,100,5.26,CD,1635180674
459,Vila,42.0304,-8.1588,55.33,75,55,3.42,PT,1635180675
460,Cabo San Lucas,22.8909,-109.9124,86.05,69,2,1.99,MX,1635180666
461,Safranbolu,41.2508,32.6942,43.79,80,8,3.22,TR,1635180675
462,Tshikapa,-6.4167,20.8,72.7,91,100,0.51,CD,1635180675
463,Nantucket,41.2835,-70.0995,69.04,86,75,13.8,US,1635180514
464,Manzhouli,49.6,117.4333,35.19,77,92,18.41,CN,1635180675
465,Ostrovnoy,68.0531,39.5131,20.89,89,18,7.25,RU,1635180676
466,Ambon City,-3.6954,128.1814,77.14,94,40,4.61,ID,1635180676
467,Necochea,-38.5473,-58.7368,68.04,46,3,14.36,AR,1635180676
468,Razdol'noye,43.55,131.9167,34.21,91,0,2.75,RU,1635180676
469,Panzhihua,26.5851,101.7128,62.17,84,0,0.58,CN,1635180677
470,Kongolo,-5.3833,27.0,73.76,90,100,2.77,CD,1635180677
471,Tena,-0.9833,-77.8167,83.16,76,72,2.48,EC,1635180677
472,Trairi,-3.2778,-39.2689,87.66,52,58,16.69,BR,1635180548
473,Westport,41.1415,-73.3579,72.28,85,1,1.99,US,1635180508
474,Vanimo,-2.6741,141.3028,77.92,86,96,2.86,PG,1635180677
475,Abalak,58.1286,68.5944,37.89,84,100,5.28,RU,1635180678
476,Viedma,-40.8135,-62.9967,71.62,21,5,21.3,AR,1635180678
477,Ruteng,-8.6136,120.4721,63.91,94,99,2.57,ID,1635180678
478,Nanortalik,60.1432,-45.2371,32.52,67,24,7.2,GL,1635180678
479,Trincomalee,8.5711,81.2335,80.92,80,88,5.03,LK,1635180679
480,Grimshaw,56.1834,-117.6027,41.7,93,90,11.5,CA,1635180679
481,Touros,-5.1989,-35.4608,88.7,55,6,17.69,BR,1635180679
482,Vieux-Habitants,16.0589,-61.7659,87.37,62,3,15.39,GP,1635180679
483,Pangkalanbuun,-2.6833,111.6167,75.49,92,91,1.1,ID,1635180680
484,Aklavik,68.2191,-135.0107,22.03,96,100,3.42,CA,1635180680
485,Mwingi,-0.9344,38.0601,77.85,44,100,8.52,KE,1635180680
486,Port Blair,11.6667,92.75,80.15,83,25,6.24,IN,1635180680
487,Batagay-Alyta,67.8006,130.4114,5.2,89,100,2.75,RU,1635180681
488,Kavieng,-2.5744,150.7967,81.32,76,10,4.68,PG,1635180681
489,Araouane,18.9048,-3.5265,98.28,14,15,8.3,ML,1635180681
490,Beyneu,45.3167,55.2,56.39,49,100,17.69,KZ,1635180681
491,Develi,38.3906,35.4922,43.95,74,100,1.92,TR,1635180682
492,Jilib,0.4883,42.7854,77.32,85,55,6.49,SO,1635180682
493,Nakhon Thai,17.1006,100.8374,71.56,96,36,2.21,TH,1635180682
494,Mandurah,-32.55,115.7,53.22,70,60,3.87,AU,1635180682
495,Altus,34.6381,-99.334,72.91,52,1,9.22,US,1635180389
496,Diego de Almagro,-26.3667,-70.05,77.76,21,0,12.59,CL,1635180491
497,Beringovskiy,63.05,179.3167,10.6,77,100,5.44,RU,1635180683
498,Teknāf,20.8624,92.3058,76.86,85,95,2.71,BD,1635180683
499,Iwanai,42.9744,140.5089,45.91,90,61,6.42,JP,1635180683
500,Okhotsk,59.3833,143.3,21.18,79,96,6.06,RU,1635180684
501,Port Keats,-14.25,129.55,81.54,70,81,3.31,AU,1635180684
502,Devgarh,25.5333,73.9,70.2,59,10,2.3,IN,1635180684
503,Valdosta,30.8327,-83.2785,80.69,78,90,3.44,US,1635180439
504,Khandyga,62.6667,135.6,25.9,98,100,0.45,RU,1635180684
505,São Filipe,14.8961,-24.4956,78.87,73,78,13.18,CV,1635180685
506,Batagay,67.6333,134.6333,-1.89,99,73,1.63,RU,1635180685
507,Järvakandi,58.7789,24.8258,47.39,81,83,11.03,EE,1635180685
508,Abu Dhabi,24.4667,54.3667,86.11,58,0,4.61,AE,1635180394
509,Olinda,-8.0089,-34.8553,83.93,65,40,11.5,BR,1635180685
510,Damietta,31.4165,31.8133,73.29,64,0,8.95,EG,1635180686
511,Sarangani,5.4033,125.4636,83.44,68,33,1.36,PH,1635180686
512,Bonanza,14.0289,-84.591,84.27,71,90,1.41,NI,1635180686
513,Lively,46.4334,-81.1498,47.01,79,100,11.74,CA,1635180686
514,Sioux Lookout,50.1001,-91.917,35.67,93,90,0.0,CA,1635180629
515,Taoudenni,22.6783,-3.9836,96.67,13,84,7.29,ML,1635180687
516,Mayo,38.8876,-76.5119,79.03,67,1,5.01,US,1635180622
517,Mount Isa,-20.7333,139.5,74.97,50,54,0.0,AU,1635180687
518,Verkhoyansk,67.5447,133.385,-4.76,100,85,1.79,RU,1635180687
519,Mandsaur,24.0667,75.0667,75.11,56,94,4.92,IN,1635180687
520,Niquelândia,-14.4739,-48.4597,93.69,34,91,3.36,BR,1635180688
521,Yumen,40.2833,97.2,41.99,41,88,3.87,CN,1635180688
522,Ippy,6.2679,21.2247,74.59,89,100,0.83,CF,1635180688
523,Houma,29.5958,-90.7195,84.99,77,40,6.91,US,1635180688
524,Bolshaya Rechka,51.9503,104.7355,37.67,78,64,4.76,RU,1635180689
525,Yulara,-25.2406,130.9889,76.84,27,61,12.66,AU,1635180689
526,Kachug,53.9606,105.8817,35.11,79,96,4.43,RU,1635180689
527,Flinders,-34.5833,150.8552,56.48,79,28,5.91,AU,1635180689
528,Piripiri,-4.2733,-41.7769,102.88,18,9,7.74,BR,1635180690
529,Jasper,37.2001,-94.3502,54.36,79,90,5.75,US,1635180429
530,Aksarka,66.5606,67.7975,18.36,94,99,4.63,RU,1635180690
531,Siocon,7.7061,122.1353,78.98,84,86,2.77,PH,1635180690
532,Visnes,59.3556,5.2242,53.58,82,40,16.11,NO,1635180690
533,Lensk,60.7253,114.9278,34.23,80,100,9.95,RU,1635180690
534,Devrek,41.2192,31.9558,46.42,87,5,1.48,TR,1635180691
535,Havøysund,70.9963,24.6622,29.28,75,25,18.95,NO,1635180691
536,Amoy,24.4798,118.0819,73.45,56,0,13.42,CN,1635180649
537,Te Anau,-45.4167,167.7167,50.9,97,83,0.78,NZ,1635180691
538,Luorong,24.4058,109.6086,62.24,70,3,4.03,CN,1635180692
539,Ternate,0.8,127.4,80.96,80,71,3.8,ID,1635180692
540,Trofors,65.5333,13.4063,47.55,99,100,5.19,NO,1635180692
541,Mayor Pablo Lagerenza,-19.9309,-60.7718,93.24,16,85,5.86,PY,1635180692
542,Strelka,58.0728,93.0344,44.91,67,100,16.46,RU,1635180693
543,Pāsighāt,28.0667,95.3333,69.19,82,40,3.78,IN,1635180693
544,Solenzo,12.1833,-4.0833,88.88,42,90,5.82,BF,1635180693
545,Mahibadhoo,3.7833,72.9667,81.72,78,100,16.93,MV,1635180693
546,Ballyshannon,54.5,-8.1833,53.46,83,68,12.35,IE,1635180693
547,Bay Roberts,47.5999,-53.2648,45.52,77,99,7.0,CA,1635180694
548,Gōtsuchō,35.0,132.2167,54.18,82,3,4.36,JP,1635180694
549,Bairiki Village,1.3292,172.9752,77.0,88,20,0.0,KI,1635180694
550,Vaitape,-16.5167,-151.75,78.37,77,98,4.79,PF,1635180694
551,Ferrol,43.4832,-8.2369,64.27,86,28,1.92,ES,1635180695
552,Perbaungan,3.5679,98.956,77.11,88,100,4.14,ID,1635180695
553,Colón,9.3592,-79.9014,87.87,73,80,8.99,PA,1635180695
554,Jatiroto,-7.8833,111.1167,74.93,85,65,3.33,ID,1635180695
555,Beli Potok,44.7061,20.5197,50.38,51,0,16.51,RS,1635180696
556,Grand Gaube,-20.0064,57.6608,75.6,69,31,5.01,MU,1635180696
557,Andijan,40.7821,72.3442,51.66,23,0,3.36,UZ,1635180696
558,Constitución,-35.3333,-72.4167,66.42,55,73,20.22,CL,1635180697
559,Kwinana,-32.25,115.7667,53.24,77,75,7.54,AU,1635180697
560,La Rioja,42.25,-2.5,57.04,44,77,1.74,ES,1635180697
561,Borba,-4.3878,-59.5939,95.65,39,56,3.58,BR,1635180697
562,Isla Vista,34.4133,-119.861,64.08,86,90,12.66,US,1635180697
563,Hirara,24.8,125.2833,76.42,67,10,21.68,JP,1635180698
564,Narrabri,-30.3167,149.7833,50.52,70,0,3.44,AU,1635180698
565,Grindavik,63.8424,-22.4338,41.47,81,75,4.61,IS,1635180698
566,Raudeberg,61.9875,5.1352,49.19,91,79,8.01,NO,1635180698
567,Hutchinson,38.0608,-97.9298,48.18,81,90,5.75,US,1635180503
